[
  {
    "id": "24814",
    "name": "Barbadoes St near Canon St",
    "lat": -43.51544,
    "lon": 172.64586
  },
  {
    "id": "22636",
    "name": "Waltham Rd near Coleridge St",
    "lat": -43.54577,
    "lon": 172.64697
  },
  {
    "id": "40064",
    "name": "Hussey Rd near Springvale Gdns",
    "lat": -43.46238,
    "lon": 172.59192
  },
  {
    "id": "43571",
    "name": "Memorial Ave near Ilam Rd",
    "lat": -43.51205,
    "lon": 172.58006
  },
  {
    "id": "18131",
    "name": "Hardy St near Beresford St",
    "lat": -43.50875,
    "lon": 172.72482
  },
  {
    "id": "20451",
    "name": "Hills Rd near Warden St",
    "lat": -43.51144,
    "lon": 172.65174
  },
  {
    "id": "42241",
    "name": "Williams St near Kaiapoi Golf Club",
    "lat": -43.37198,
    "lon": 172.66372
  },
  {
    "id": "46608",
    "name": "Halswell Junction Rd near Foremans Rd",
    "lat": -43.54355,
    "lon": 172.50633
  },
  {
    "id": "17282",
    "name": "Highsted Rd near Sapphire St",
    "lat": -43.47952,
    "lon": 172.59492
  },
  {
    "id": "45757",
    "name": "O'Neill Ave near Beechwood Dr",
    "lat": -43.46302,
    "lon": 172.61903
  },
  {
    "id": "21789",
    "name": "Effingham St near Marine Pde",
    "lat": -43.49061,
    "lon": 172.72417
  },
  {
    "id": "12837",
    "name": "Lincoln Rd near Nairn St",
    "lat": -43.54811,
    "lon": 172.60438
  },
  {
    "id": "10656",
    "name": "Guildford St near Wayside Ave",
    "lat": -43.50507,
    "lon": 172.5802
  },
  {
    "id": "36804",
    "name": "Gayhurst Rd near Strathfield Ave",
    "lat": -43.51055,
    "lon": 172.67379
  },
  {
    "id": "53383",
    "name": "Lake Tce Rd near New Brighton Rd",
    "lat": -43.50019,
    "lon": 172.68355
  },
  {
    "id": "54239",
    "name": "Innes Rd near Nancy Ave",
    "lat": -43.49984,
    "lon": 172.6385
  },
  {
    "id": "11500",
    "name": "The Hub Hornby",
    "lat": -43.54227,
    "lon": 172.52248
  },
  {
    "id": "33779",
    "name": "Patterson Tce near Alvaston Dr",
    "lat": -43.57556,
    "lon": 172.5534
  },
  {
    "id": "20467",
    "name": "Hills Rd near Dudley St",
    "lat": -43.51497,
    "lon": 172.65175
  },
  {
    "id": "18149",
    "name": "Seaview Rd",
    "lat": -43.5087,
    "lon": 172.72312
  },
  {
    "id": "41382",
    "name": "Fendalton Rd near Waiwetu St",
    "lat": -43.51879,
    "lon": 172.59194
  },
  {
    "id": "17295",
    "name": "Veitches Rd near Larch Pl",
    "lat": -43.48159,
    "lon": 172.59845
  },
  {
    "id": "40055",
    "name": "Town Hall",
    "lat": -43.3042,
    "lon": 172.58964
  },
  {
    "id": "21791",
    "name": "Effingham St near Surfers Pl",
    "lat": -43.4917,
    "lon": 172.72115
  },
  {
    "id": "23972",
    "name": "Sydenham Shops",
    "lat": -43.54709,
    "lon": 172.63677
  },
  {
    "id": "39061",
    "name": "Travis Rd near Travis Country Dr",
    "lat": -43.49315,
    "lon": 172.69756
  },
  {
    "id": "42239",
    "name": "Winchester St near Coleridge Tce",
    "lat": -43.60097,
    "lon": 172.71972
  },
  {
    "id": "54241",
    "name": "Greers Rd near Westburn Terrace",
    "lat": -43.51008,
    "lon": 172.57504
  },
  {
    "id": "11516",
    "name": "Rossall St near Rhodes St",
    "lat": -43.52164,
    "lon": 172.6171
  },
  {
    "id": "10660",
    "name": "Carlton Mill Rd near Shrewsbury St",
    "lat": -43.52094,
    "lon": 172.62375
  },
  {
    "id": "29273",
    "name": "Regents Park Dr near Styx Mill Rd",
    "lat": -43.46936,
    "lon": 172.61551
  },
  {
    "id": "12844",
    "name": "Papanui Rd near Webb St",
    "lat": -43.5153,
    "lon": 172.62416
  },
  {
    "id": "33767",
    "name": "Nottingham Ave near Arkwright Pl",
    "lat": -43.57376,
    "lon": 172.55683
  },
  {
    "id": "11996",
    "name": "St Martins Rd near Ensors Rd",
    "lat": -43.55284,
    "lon": 172.65729
  },
  {
    "id": "40040",
    "name": "Port Hills Rd near Curries Rd",
    "lat": -43.56225,
    "lon": 172.67573
  },
  {
    "id": "17269",
    "name": "Veitches Rd near Kimberley St",
    "lat": -43.48195,
    "lon": 172.59523
  },
  {
    "id": "23940",
    "name": "Colombo St near Southampton St",
    "lat": -43.55256,
    "lon": 172.63692
  },
  {
    "id": "15083",
    "name": "Main North Rd near Parsonage Rd",
    "lat": -43.3214,
    "lon": 172.6657
  },
  {
    "id": "11965",
    "name": "Barrington St near Wychbury St",
    "lat": -43.55461,
    "lon": 172.61581
  },
  {
    "id": "32421",
    "name": "Opawa Rd near Brougham St",
    "lat": -43.55494,
    "lon": 172.67
  },
  {
    "id": "29241",
    "name": "Regents Park Dr near Styx Mill Rd",
    "lat": -43.46917,
    "lon": 172.61561
  },
  {
    "id": "10639",
    "name": "Clyde Rd near Morley St",
    "lat": -43.50562,
    "lon": 172.58677
  },
  {
    "id": "33751",
    "name": "Patterson Tce near Clipston Pl",
    "lat": -43.57403,
    "lon": 172.55363
  },
  {
    "id": "12816",
    "name": "Papanui Rd near Weston Rd",
    "lat": -43.50781,
    "lon": 172.6179
  },
  {
    "id": "54256",
    "name": "Greers Rd near Westburn Terrace",
    "lat": -43.5107,
    "lon": 172.57461
  },
  {
    "id": "55108",
    "name": "Rolleston College",
    "lat": -43.60561,
    "lon": 172.38841
  },
  {
    "id": "23955",
    "name": "Colombo St near Byron St",
    "lat": -43.54295,
    "lon": 172.63674
  },
  {
    "id": "39042",
    "name": "Awatea Rd near Owaka Rd",
    "lat": -43.55774,
    "lon": 172.54411
  },
  {
    "id": "24805",
    "name": "Yaldhurst Rd near Bucknell St",
    "lat": -43.52738,
    "lon": 172.55749
  },
  {
    "id": "38197",
    "name": "Amyes Rd near Trevor St",
    "lat": -43.55145,
    "lon": 172.53269
  },
  {
    "id": "15096",
    "name": "Rangiora Woodend Rd near Chinnerys Rd",
    "lat": -43.31902,
    "lon": 172.65747
  },
  {
    "id": "42698",
    "name": "Colenso St near Menzies St",
    "lat": -43.57575,
    "lon": 172.76314
  },
  {
    "id": "40038",
    "name": "North Pde near Poulton Ave",
    "lat": -43.51361,
    "lon": 172.66064
  },
  {
    "id": "54260",
    "name": "Victoria St near Peterborough St",
    "lat": -43.52518,
    "lon": 172.63158
  },
  {
    "id": "45726",
    "name": "Charlesworth St near Ti Rakau Dr",
    "lat": -43.55352,
    "lon": 172.6966
  },
  {
    "id": "20446",
    "name": "Broadhaven Ave near Anglesea Ave",
    "lat": -43.4748,
    "lon": 172.70248
  },
  {
    "id": "42218",
    "name": "Dublin St near Norwich Qy",
    "lat": -43.60253,
    "lon": 172.71798
  },
  {
    "id": "11977",
    "name": "Harvard Ave and Main South Rd",
    "lat": -43.54263,
    "lon": 172.54721
  },
  {
    "id": "55112",
    "name": "Silverstream Blvd near Island Rd",
    "lat": -43.37873,
    "lon": 172.63775
  },
  {
    "id": "32893",
    "name": "Huntsbury Ave near Vista Pl",
    "lat": -43.57196,
    "lon": 172.65453
  },
  {
    "id": "10641",
    "name": "Clyde Rd near Hooker Ave",
    "lat": -43.50497,
    "lon": 172.58477
  },
  {
    "id": "19459",
    "name": "Harewood Rd near Trafford St",
    "lat": -43.48341,
    "lon": 172.57721
  },
  {
    "id": "38184",
    "name": "Awatea Rd near Dix St",
    "lat": -43.55255,
    "lon": 172.53633
  },
  {
    "id": "15065",
    "name": "Main North Rd near Woodend Beach Rd",
    "lat": -43.33414,
    "lon": 172.66654
  },
  {
    "id": "20894",
    "name": "Broadhaven Ave near Ferngrove Pl",
    "lat": -43.47355,
    "lon": 172.69945
  },
  {
    "id": "18578",
    "name": "N Avon Rd near Tweed St",
    "lat": -43.51766,
    "lon": 172.65807
  },
  {
    "id": "42680",
    "name": "Sumner",
    "lat": -43.5818,
    "lon": 172.75661
  },
  {
    "id": "39035",
    "name": "Awatea Rd near Owaka Rd",
    "lat": -43.55749,
    "lon": 172.54387
  },
  {
    "id": "23929",
    "name": "Hargood St near Clydesdale St",
    "lat": -43.54303,
    "lon": 172.68343
  },
  {
    "id": "41353",
    "name": "Templeton",
    "lat": -43.55181,
    "lon": 172.47223
  },
  {
    "id": "54273",
    "name": "Waimairi Rd near Dovedale Ave",
    "lat": -43.52105,
    "lon": 172.57277
  },
  {
    "id": "55120",
    "name": "Silverstream Blvd near Island Rd",
    "lat": -43.37854,
    "lon": 172.63784
  },
  {
    "id": "20414",
    "name": "Queenspark",
    "lat": -43.47563,
    "lon": 172.70733
  },
  {
    "id": "43537",
    "name": "Rossall St near Highgate Ave",
    "lat": -43.51822,
    "lon": 172.61462
  },
  {
    "id": "32886",
    "name": "Huntsbury Ave",
    "lat": -43.56716,
    "lon": 172.65278
  },
  {
    "id": "11949",
    "name": "Clarence St near Peverel St",
    "lat": -43.53127,
    "lon": 172.60205
  },
  {
    "id": "10618",
    "name": "Clyde Rd near Wai-iti Tce",
    "lat": -43.51148,
    "lon": 172.59007
  },
  {
    "id": "32409",
    "name": "Ramahana Rd near Aotea Tce",
    "lat": -43.56582,
    "lon": 172.65542
  },
  {
    "id": "19428",
    "name": "Colombo St near Bealey Ave",
    "lat": -43.52026,
    "lon": 172.63652
  },
  {
    "id": "20422",
    "name": "Broadhaven Ave near Ferngrove Pl",
    "lat": -43.47346,
    "lon": 172.69953
  },
  {
    "id": "40491",
    "name": "Ferry Rd near Osborne St",
    "lat": -43.54158,
    "lon": 172.66275
  },
  {
    "id": "38178",
    "name": "Awatea Rd near Dix St",
    "lat": -43.55253,
    "lon": 172.53606
  },
  {
    "id": "18584",
    "name": "Beach Rd near Bower Ave",
    "lat": -43.48645,
    "lon": 172.71253
  },
  {
    "id": "17253",
    "name": "Riccarton Ave",
    "lat": -43.53112,
    "lon": 172.6161
  },
  {
    "id": "15077",
    "name": "Woodend (Main North Rd)",
    "lat": -43.32778,
    "lon": 172.66613
  },
  {
    "id": "43528",
    "name": "Williams St near Courtenay Drive",
    "lat": -43.39136,
    "lon": 172.65319
  },
  {
    "id": "41348",
    "name": "Fendalton",
    "lat": -43.5186,
    "lon": 172.59199
  },
  {
    "id": "40017",
    "name": "Rossall St near Highgate Ave",
    "lat": -43.51838,
    "lon": 172.61493
  },
  {
    "id": "29239",
    "name": "Daniels Rd near Marwick Pl",
    "lat": -43.4785,
    "lon": 172.62309
  },
  {
    "id": "55131",
    "name": "Adderley Tce near Penney Ave",
    "lat": -43.37743,
    "lon": 172.64269
  },
  {
    "id": "44858",
    "name": "Ti Rakau Dr near Kestrel Pl",
    "lat": -43.54869,
    "lon": 172.69521
  },
  {
    "id": "54287",
    "name": "Waimairi Rd near Dovedale Ave",
    "lat": -43.52104,
    "lon": 172.5726
  },
  {
    "id": "11954",
    "name": "St Martins Rd near Wilding St",
    "lat": -43.55486,
    "lon": 172.65306
  },
  {
    "id": "32872",
    "name": "Huntsbury Ave near Ramahana Rd",
    "lat": -43.5643,
    "lon": 172.65308
  },
  {
    "id": "10625",
    "name": "Clyde Rd near Evatt St",
    "lat": -43.50781,
    "lon": 172.58873
  },
  {
    "id": "12800",
    "name": "Papanui Rd near Milford St",
    "lat": -43.50959,
    "lon": 172.61956
  },
  {
    "id": "19437",
    "name": "Veitches Rd near Larch Pl",
    "lat": -43.48172,
    "lon": 172.59836
  },
  {
    "id": "18108",
    "name": "Wainoni Rd near Ottawa Rd",
    "lat": -43.51718,
    "lon": 172.6865
  },
  {
    "id": "41330",
    "name": "New Brighton Rd near Bower Ave",
    "lat": -43.50354,
    "lon": 172.70869
  },
  {
    "id": "20873",
    "name": "Queenspark",
    "lat": -43.47573,
    "lon": 172.70727
  },
  {
    "id": "19400",
    "name": "Colombo St near Canon St",
    "lat": -43.51531,
    "lon": 172.6365
  },
  {
    "id": "23901",
    "name": "Hargood St and Linwood Ave",
    "lat": -43.54101,
    "lon": 172.68468
  },
  {
    "id": "38166",
    "name": "Awatea Rd near Awatea Gdns",
    "lat": -43.554,
    "lon": 172.53813
  },
  {
    "id": "14198",
    "name": "Buchanans Rd near Peebles Dr",
    "lat": -43.53463,
    "lon": 172.54215
  },
  {
    "id": "16370",
    "name": "Wairakei Rd near Charlcott St",
    "lat": -43.49412,
    "lon": 172.57532
  },
  {
    "id": "54294",
    "name": "Cranford St near Knowles St",
    "lat": -43.5018,
    "lon": 172.6321
  },
  {
    "id": "42667",
    "name": "Wakefield Ave near Paisley St",
    "lat": -43.5796,
    "lon": 172.75606
  },
  {
    "id": "32864",
    "name": "Ramahana Rd near Aotea Tce",
    "lat": -43.56467,
    "lon": 172.65442
  },
  {
    "id": "55149",
    "name": "Adderley Tce near Penney Ave",
    "lat": -43.37762,
    "lon": 172.64282
  },
  {
    "id": "15049",
    "name": "Williams St near the lakes",
    "lat": -43.35683,
    "lon": 172.66461
  },
  {
    "id": "39019",
    "name": "Main South Rd near Canterbury St",
    "lat": -43.54277,
    "lon": 172.53339
  },
  {
    "id": "30688",
    "name": "Gloucester St near Latimer Square",
    "lat": -43.52977,
    "lon": 172.6415
  },
  {
    "id": "33714",
    "name": "Selwyn St near Bletsoe Ave",
    "lat": -43.55151,
    "lon": 172.62427
  },
  {
    "id": "26170",
    "name": "Woodend (Main North Rd)",
    "lat": -43.32785,
    "lon": 172.66596
  },
  {
    "id": "42651",
    "name": "Nayland St near Head St",
    "lat": -43.57401,
    "lon": 172.76679
  },
  {
    "id": "18566",
    "name": "Marine Pde near Rawhiti Ave",
    "lat": -43.49989,
    "lon": 172.72807
  },
  {
    "id": "39003",
    "name": "Main South Rd near Tower St",
    "lat": -43.5433,
    "lon": 172.52837
  },
  {
    "id": "17230",
    "name": "Riccarton Ave (Hospital)",
    "lat": -43.53397,
    "lon": 172.6224
  },
  {
    "id": "23917",
    "name": "Colombo St near Boon St",
    "lat": -43.55439,
    "lon": 172.63693
  },
  {
    "id": "20405",
    "name": "Broadhaven Ave near Jacaranda Pl",
    "lat": -43.47205,
    "lon": 172.6983
  },
  {
    "id": "21736",
    "name": "Effingham St near Pegasus Ave",
    "lat": -43.48711,
    "lon": 172.71725
  },
  {
    "id": "20887",
    "name": "Bower Ave near Pinewood Ave",
    "lat": -43.48897,
    "lon": 172.71161
  },
  {
    "id": "38150",
    "name": "Awatea Rd near Awatea Gdns",
    "lat": -43.55417,
    "lon": 172.53811
  },
  {
    "id": "10602",
    "name": "Clyde Rd near Jeffreys Rd",
    "lat": -43.51311,
    "lon": 172.59053
  },
  {
    "id": "55154",
    "name": "Wooldridge Rd",
    "lat": -43.48427,
    "lon": 172.56744
  },
  {
    "id": "30674",
    "name": "Marriner St near Wakefield Ave",
    "lat": -43.56851,
    "lon": 172.75921
  },
  {
    "id": "26189",
    "name": "Estuary Rd near Beatty St",
    "lat": -43.52779,
    "lon": 172.73473
  },
  {
    "id": "33705",
    "name": "Selwyn St near Cheviot St",
    "lat": -43.55253,
    "lon": 172.62542
  },
  {
    "id": "19416",
    "name": "Harewood Rd near Gardiners Rd",
    "lat": -43.48484,
    "lon": 172.58068
  },
  {
    "id": "11931",
    "name": "Cashmere Rd near Crichton Tce",
    "lat": -43.56773,
    "lon": 172.62709
  },
  {
    "id": "32855",
    "name": "Ramahana Rd near Aotea Tce",
    "lat": -43.56546,
    "lon": 172.65523
  },
  {
    "id": "24418",
    "name": "Barbadoes St near Bealey Ave",
    "lat": -43.52011,
    "lon": 172.64605
  },
  {
    "id": "10251",
    "name": "Maidstone Rd near Colina St",
    "lat": -43.51693,
    "lon": 172.55738
  },
  {
    "id": "23566",
    "name": "Ferry Rd near Phillipstown Cts",
    "lat": -43.54045,
    "lon": 172.65908
  },
  {
    "id": "19060",
    "name": "Highsted Rd near Glenmore Ave",
    "lat": -43.47729,
    "lon": 172.59646
  },
  {
    "id": "53781",
    "name": "Yaldhurst",
    "lat": -43.51234,
    "lon": 172.50716
  },
  {
    "id": "32048",
    "name": "Carmen Rd near Halwyn Dr",
    "lat": -43.53211,
    "lon": 172.5318
  },
  {
    "id": "54633",
    "name": "Gardiners Road near Cullahill Street",
    "lat": -43.47974,
    "lon": 172.58377
  },
  {
    "id": "22230",
    "name": "Westlake Dr near Hemingford Pl",
    "lat": -43.5702,
    "lon": 172.5563
  },
  {
    "id": "51126",
    "name": "Disraeli St near Selwyn St",
    "lat": -43.5423,
    "lon": 172.62266
  },
  {
    "id": "43172",
    "name": "Harper Ave near Deans Ave",
    "lat": -43.52403,
    "lon": 172.61386
  },
  {
    "id": "12431",
    "name": "Stanmore Rd near Lychgate Cl",
    "lat": -43.52595,
    "lon": 172.65697
  },
  {
    "id": "36889",
    "name": "Buckleys Rd near Pamela St",
    "lat": -43.5305,
    "lon": 172.67715
  },
  {
    "id": "14612",
    "name": "Gilberthorpes Rd near Waterloo Rd",
    "lat": -43.5404,
    "lon": 172.51576
  },
  {
    "id": "53308",
    "name": "Westfield Riccarton",
    "lat": -43.52977,
    "lon": 172.5995
  },
  {
    "id": "15943",
    "name": "Main North Rd near Swift St",
    "lat": -43.45241,
    "lon": 172.62783
  },
  {
    "id": "13766",
    "name": "Lake Terrace Rd near Fairway Dr",
    "lat": -43.4946,
    "lon": 172.6656
  },
  {
    "id": "43164",
    "name": "Wairakei Rd near Jennifer St",
    "lat": -43.50202,
    "lon": 172.59094
  },
  {
    "id": "36870",
    "name": "Kerrs Rd",
    "lat": -43.5262,
    "lon": 172.68142
  },
  {
    "id": "44014",
    "name": "Ashley St near River Rd",
    "lat": -43.28973,
    "lon": 172.59295
  },
  {
    "id": "11592",
    "name": "Hoon Hay Rd near Cashmere Rd",
    "lat": -43.57379,
    "lon": 172.61458
  },
  {
    "id": "32030",
    "name": "Blenheim Rd near Cable St",
    "lat": -43.53927,
    "lon": 172.56148
  },
  {
    "id": "19073",
    "name": "Highsted Rd near Sapphire St",
    "lat": -43.47965,
    "lon": 172.59464
  },
  {
    "id": "26601",
    "name": "Southern Park and Ride (South Belt)",
    "lat": -43.31861,
    "lon": 172.59292
  },
  {
    "id": "24425",
    "name": "Flockton St near Archer St",
    "lat": -43.50466,
    "lon": 172.64395
  },
  {
    "id": "33369",
    "name": "Milton St",
    "lat": -43.5524,
    "lon": 172.63019
  },
  {
    "id": "15958",
    "name": "Main North Rd near Thompsons Rd",
    "lat": -43.4573,
    "lon": 172.62469
  },
  {
    "id": "3248",
    "name": "Mt Pleasant Terminus",
    "lat": -43.55824,
    "lon": 172.72919
  },
  {
    "id": "37721",
    "name": "Memorial Ave near Hampton Pl",
    "lat": -43.51062,
    "lon": 172.57778
  },
  {
    "id": "53799",
    "name": "Yaldhurst",
    "lat": -43.51254,
    "lon": 172.5074
  },
  {
    "id": "13778",
    "name": "Lake Terrace Rd near Lakewood Dr",
    "lat": -43.49453,
    "lon": 172.67642
  },
  {
    "id": "10267",
    "name": "Maidstone Rd near Radbrook St",
    "lat": -43.51704,
    "lon": 172.55997
  },
  {
    "id": "11117",
    "name": "Lyttelton St near Conway St",
    "lat": -43.56558,
    "lon": 172.615
  },
  {
    "id": "24879",
    "name": "Springs Rd near Caudron Rd",
    "lat": -43.54695,
    "lon": 172.54191
  },
  {
    "id": "43155",
    "name": "Wairakei Rd near Pitcairn Cres",
    "lat": -43.50464,
    "lon": 172.59671
  },
  {
    "id": "3263",
    "name": "NTA",
    "lat": -43.46423,
    "lon": 172.44606
  },
  {
    "id": "3262",
    "name": "NTA",
    "lat": -43.46408,
    "lon": 172.4459
  },
  {
    "id": "23545",
    "name": "Aylmer St and Colombo St",
    "lat": -43.5588,
    "lon": 172.63679
  },
  {
    "id": "15927",
    "name": "Main North Rd near Richill St",
    "lat": -43.44512,
    "lon": 172.63253
  },
  {
    "id": "50295",
    "name": "Ellesmere Junction Rd near Mather Pl",
    "lat": -43.64221,
    "lon": 172.41985
  },
  {
    "id": "32024",
    "name": "Hackthorne Rd near Gwynfa Ave",
    "lat": -43.5741,
    "lon": 172.62455
  },
  {
    "id": "36862",
    "name": "Woodham Rd near Carnarvon St",
    "lat": -43.52512,
    "lon": 172.67747
  },
  {
    "id": "12892",
    "name": "Papanui Rd near Tomes Rd",
    "lat": -43.50421,
    "lon": 172.61458
  },
  {
    "id": "10233",
    "name": "Withells Rd near Gainford St",
    "lat": -43.51413,
    "lon": 172.5542
  },
  {
    "id": "11563",
    "name": "Ensors Rd near Grenville St",
    "lat": -43.5445,
    "lon": 172.66336
  },
  {
    "id": "44482",
    "name": "Main North Rd near Hewitts Rd",
    "lat": -43.31769,
    "lon": 172.66759
  },
  {
    "id": "13745",
    "name": "Burwood Rd near Helmsdale St",
    "lat": -43.48639,
    "lon": 172.68245
  },
  {
    "id": "12412",
    "name": "Stanmore Rd near London St",
    "lat": -43.52002,
    "lon": 172.65629
  },
  {
    "id": "44476",
    "name": "King St near Royal Tce",
    "lat": -43.2968,
    "lon": 172.5889
  },
  {
    "id": "22224",
    "name": "Lancewood Dr near Westlake Dr",
    "lat": -43.57174,
    "lon": 172.55939
  },
  {
    "id": "24402",
    "name": "Barbadoes St near Canon St",
    "lat": -43.51584,
    "lon": 172.64604
  },
  {
    "id": "14608",
    "name": "Manurere St near Tauiwi Cres",
    "lat": -43.531,
    "lon": 172.52515
  },
  {
    "id": "53331",
    "name": "Silverstream",
    "lat": -43.38031,
    "lon": 172.63613
  },
  {
    "id": "33348",
    "name": "Cashmere Rd near Penruddock Rse",
    "lat": -43.57506,
    "lon": 172.60502
  },
  {
    "id": "15936",
    "name": "Main North Rd near Donegal St",
    "lat": -43.44708,
    "lon": 172.63125
  },
  {
    "id": "37709",
    "name": "Greers Rd near Saffron St",
    "lat": -43.49844,
    "lon": 172.58726
  },
  {
    "id": "51157",
    "name": "Woodham Rd near Tancred St",
    "lat": -43.52512,
    "lon": 172.67147
  },
  {
    "id": "32011",
    "name": "Colombo St near Fisher Ave",
    "lat": -43.56023,
    "lon": 172.63698
  },
  {
    "id": "23550",
    "name": "Colombo St near Fisher Ave",
    "lat": -43.56025,
    "lon": 172.63681
  },
  {
    "id": "43140",
    "name": "Highsted Rd",
    "lat": -43.48134,
    "lon": 172.5935
  },
  {
    "id": "13750",
    "name": "Stanmore Rd near Gloucester St",
    "lat": -43.5303,
    "lon": 172.65698
  },
  {
    "id": "12420",
    "name": "Stanmore Rd near Alexandra St",
    "lat": -43.52289,
    "lon": 172.65647
  },
  {
    "id": "42294",
    "name": "Port Hills Rd near Nuttall Dr",
    "lat": -43.56643,
    "lon": 172.68028
  },
  {
    "id": "54667",
    "name": "Kaiapoi Central Park & Ride",
    "lat": -43.38298,
    "lon": 172.66049
  },
  {
    "id": "10246",
    "name": "Maidstone Rd near Derenzy Pl",
    "lat": -43.51639,
    "lon": 172.55432
  },
  {
    "id": "20498",
    "name": "Queenspark Dr near Chadlington St",
    "lat": -43.47512,
    "lon": 172.69476
  },
  {
    "id": "44469",
    "name": "Main North Rd near Hewitts Rd",
    "lat": -43.31783,
    "lon": 172.66767
  },
  {
    "id": "47976",
    "name": "James St near Boundary Rd",
    "lat": -43.6362,
    "lon": 172.48916
  },
  {
    "id": "25706",
    "name": "Waterloo Rd near Kissel St",
    "lat": -43.55329,
    "lon": 172.47632
  },
  {
    "id": "18177",
    "name": "Wainoni Rd near Ottawa Rd",
    "lat": -43.51716,
    "lon": 172.68672
  },
  {
    "id": "19025",
    "name": "Cranford St near Mcfaddens Rd",
    "lat": -43.49919,
    "lon": 172.62989
  },
  {
    "id": "42287",
    "name": "Williams St near Lees Rd",
    "lat": -43.35417,
    "lon": 172.66441
  },
  {
    "id": "24851",
    "name": "Carmen Rd near Waterloo Rd",
    "lat": -43.53774,
    "lon": 172.52827
  },
  {
    "id": "23521",
    "name": "Ferry Rd near Bordesley St",
    "lat": -43.54117,
    "lon": 172.66129
  },
  {
    "id": "15904",
    "name": "Kainga",
    "lat": -43.4189,
    "lon": 172.65282
  },
  {
    "id": "33330",
    "name": "Cashmere Rd near Mavin Rd",
    "lat": -43.57416,
    "lon": 172.61365
  },
  {
    "id": "32484",
    "name": "Glovers Rd near Larsens Rd",
    "lat": -43.59343,
    "lon": 172.5681
  },
  {
    "id": "53349",
    "name": "Silverstream",
    "lat": -43.38027,
    "lon": 172.63589
  },
  {
    "id": "12871",
    "name": "Papanui Rd near Mays Rd",
    "lat": -43.5055,
    "lon": 172.61556
  },
  {
    "id": "10694",
    "name": "Whitby St near Everest St",
    "lat": -43.49863,
    "lon": 172.56877
  },
  {
    "id": "13721",
    "name": "Beach Rd near Effingham St",
    "lat": -43.48629,
    "lon": 172.71637
  },
  {
    "id": "32007",
    "name": "Buchanans Rd near Dumfries Dr",
    "lat": -43.53178,
    "lon": 172.53272
  },
  {
    "id": "10214",
    "name": "Avonhead Mall",
    "lat": -43.51083,
    "lon": 172.55611
  },
  {
    "id": "42273",
    "name": "Port Hills Rd near Avoca Valley Rd",
    "lat": -43.56968,
    "lon": 172.68378
  },
  {
    "id": "46631",
    "name": "Merrin St near Withells Rd",
    "lat": -43.51041,
    "lon": 172.55708
  },
  {
    "id": "45301",
    "name": "Burwood Rd",
    "lat": -43.48094,
    "lon": 172.68104
  },
  {
    "id": "44453",
    "name": "King St near Royal Tce",
    "lat": -43.2968,
    "lon": 172.58873
  },
  {
    "id": "18183",
    "name": "Wainoni Rd near Avonside Dr",
    "lat": -43.51497,
    "lon": 172.68869
  },
  {
    "id": "25710",
    "name": "Waterloo Rd",
    "lat": -43.54248,
    "lon": 172.503
  },
  {
    "id": "23532",
    "name": "Hackthorne Rd near Westenra Tce",
    "lat": -43.57806,
    "lon": 172.6334
  },
  {
    "id": "54680",
    "name": "Travis Road near Atlantis Street",
    "lat": -43.49358,
    "lon": 172.70447
  },
  {
    "id": "32478",
    "name": "Roydvale Ave",
    "lat": -43.49023,
    "lon": 172.56571
  },
  {
    "id": "12408",
    "name": "Burwood Rd near Lakewood Dr",
    "lat": -43.49355,
    "lon": 172.68403
  },
  {
    "id": "15915",
    "name": "Main North Rd near Link Rd",
    "lat": -43.42369,
    "lon": 172.65122
  },
  {
    "id": "51174",
    "name": "Gardiners Rd near Sawyers Arms Rd",
    "lat": -43.47676,
    "lon": 172.58585
  },
  {
    "id": "54202",
    "name": "Penruddock Rise near Sedbergh Place",
    "lat": -43.58361,
    "lon": 172.60117
  },
  {
    "id": "10222",
    "name": "Withells Rd near Apsley Dr",
    "lat": -43.51216,
    "lon": 172.55534
  },
  {
    "id": "12885",
    "name": "Papanui Rd near Normans Rd",
    "lat": -43.50611,
    "lon": 172.61633
  },
  {
    "id": "13732",
    "name": "Burwood Rd near Mairehau Rd",
    "lat": -43.48321,
    "lon": 172.68105
  },
  {
    "id": "19485",
    "name": "Harewood Rd near Cotswold Ave",
    "lat": -43.48647,
    "lon": 172.58457
  },
  {
    "id": "23509",
    "name": "Ferry Rd near Manning Pl",
    "lat": -43.5437,
    "lon": 172.66796
  },
  {
    "id": "19002",
    "name": "Claridges Rd near Opal Pl",
    "lat": -43.47599,
    "lon": 172.6006
  },
  {
    "id": "39090",
    "name": "Bassett St near Tobin Ln",
    "lat": -43.49957,
    "lon": 172.68806
  },
  {
    "id": "43117",
    "name": "Rocking Horse Rd near Heron St",
    "lat": -43.54209,
    "lon": 172.74386
  },
  {
    "id": "44448",
    "name": "Main Nth Rd near Gressons Rd",
    "lat": -43.29512,
    "lon": 172.68422
  },
  {
    "id": "24833",
    "name": "Yaldhurst Rd near Corfe St",
    "lat": -43.52874,
    "lon": 172.5612
  },
  {
    "id": "33798",
    "name": "Halswell Rd near Halswell Junction Rd",
    "lat": -43.58633,
    "lon": 172.57065
  },
  {
    "id": "51188",
    "name": "Gardiners Rd near Sawyers Arms Rd",
    "lat": -43.4776,
    "lon": 172.58537
  },
  {
    "id": "33311",
    "name": "Cashmere Rd near Kaiwara St",
    "lat": -43.57449,
    "lon": 172.61043
  },
  {
    "id": "54698",
    "name": "Acacia Avenue near Beech Dr",
    "lat": -43.30952,
    "lon": 172.57384
  },
  {
    "id": "53365",
    "name": "Richill St near Main North Rd",
    "lat": -43.44497,
    "lon": 172.63332
  },
  {
    "id": "54218",
    "name": "Prestons Rd near Alpine View",
    "lat": -43.47388,
    "lon": 172.67274
  },
  {
    "id": "42260",
    "name": "Kaiapoi Golf Course",
    "lat": -43.36979,
    "lon": 172.66409
  },
  {
    "id": "24846",
    "name": "Russley",
    "lat": -43.518,
    "lon": 172.53841
  },
  {
    "id": "42256",
    "name": "Port Hills Rd near Chapmans Rd",
    "lat": -43.57053,
    "lon": 172.68651
  },
  {
    "id": "19018",
    "name": "Highsted Rd near Ludhiana St",
    "lat": -43.47582,
    "lon": 172.59761
  },
  {
    "id": "39088",
    "name": "New Brighton Rd",
    "lat": -43.50017,
    "lon": 172.68634
  },
  {
    "id": "45761",
    "name": "Harewood Rd near Waimakariri Rd",
    "lat": -43.47919,
    "lon": 172.55854
  },
  {
    "id": "18165",
    "name": "Wainoni Rd near Cuffs Rd",
    "lat": -43.51879,
    "lon": 172.68497
  },
  {
    "id": "43101",
    "name": "Memorial Ave near Ilam Rd",
    "lat": -43.51216,
    "lon": 172.57994
  },
  {
    "id": "19492",
    "name": "Bishopdale Mall (Harewood Rd)",
    "lat": -43.48781,
    "lon": 172.58785
  },
  {
    "id": "33780",
    "name": "Halswell Rd near Larsens Rd",
    "lat": -43.58884,
    "lon": 172.56993
  },
  {
    "id": "51190",
    "name": "Woodham Rd near Ngarimu St",
    "lat": -43.52505,
    "lon": 172.67461
  },
  {
    "id": "23513",
    "name": "Ferry Rd near Isabella Pl",
    "lat": -43.54259,
    "lon": 172.66497
  },
  {
    "id": "10205",
    "name": "Avonhead Mall",
    "lat": -43.5096,
    "lon": 172.55371
  },
  {
    "id": "54225",
    "name": "Innes Rd near Nancy Ave",
    "lat": -43.49959,
    "lon": 172.63868
  },
  {
    "id": "32450",
    "name": "Lake Terrace Rd near De Ville Pl",
    "lat": -43.49916,
    "lon": 172.6822
  },
  {
    "id": "53377",
    "name": "Lake Tce Rd near New Brighton Rd",
    "lat": -43.50005,
    "lon": 172.68373
  },
  {
    "id": "33307",
    "name": "Hoon Hay Rd",
    "lat": -43.56384,
    "lon": 172.60845
  },
  {
    "id": "29294",
    "name": "Main North Rd near Queen Elizabeth II Dr",
    "lat": -43.48514,
    "lon": 172.6164
  },
  {
    "id": "13713",
    "name": "Beach Rd near Bower Ave",
    "lat": -43.48636,
    "lon": 172.71266
  },
  {
    "id": "12863",
    "name": "Papanui Rd near Tomes Rd",
    "lat": -43.5034,
    "lon": 172.61365
  },
  {
    "id": "10687",
    "name": "Rossall St near Holmwood Rd",
    "lat": -43.51989,
    "lon": 172.61581
  },
  {
    "id": "51518",
    "name": "Corsair Dr near Harvard Ave",
    "lat": -43.54799,
    "lon": 172.54484
  },
  {
    "id": "37692",
    "name": "Riccarton Rd near Balgay St",
    "lat": -43.53099,
    "lon": 172.58322
  },
  {
    "id": "11062",
    "name": "Lincoln University",
    "lat": -43.64271,
    "lon": 172.46769
  },
  {
    "id": "12393",
    "name": "Mairehau Rd near Royal Pk Dr",
    "lat": -43.48013,
    "lon": 172.69554
  },
  {
    "id": "28732",
    "name": "Opawa Rd near Ensors Rd",
    "lat": -43.55073,
    "lon": 172.66031
  },
  {
    "id": "26557",
    "name": "Estuary Rd",
    "lat": -43.52359,
    "lon": 172.73291
  },
  {
    "id": "24378",
    "name": "Yaldhurst Rd near Angela St",
    "lat": -43.53147,
    "lon": 172.57031
  },
  {
    "id": "40869",
    "name": "Beach Rd near Britannia St",
    "lat": -43.48638,
    "lon": 172.71896
  },
  {
    "id": "22194",
    "name": "Lyttelton St near Glynne Cres",
    "lat": -43.55783,
    "lon": 172.60969
  },
  {
    "id": "50670",
    "name": "Hansons Ln near Arthur St",
    "lat": -43.53832,
    "lon": 172.57473
  },
  {
    "id": "17604",
    "name": "Memorial Ave near Roydvale Ave",
    "lat": -43.50034,
    "lon": 172.56104
  },
  {
    "id": "38546",
    "name": "St Albans St near Devonport Ln",
    "lat": -43.51231,
    "lon": 172.62403
  },
  {
    "id": "18938",
    "name": "Tuam St near Saxon St",
    "lat": -43.53551,
    "lon": 172.65511
  },
  {
    "id": "53706",
    "name": "Gloucester St near Fitzgerald Ave",
    "lat": -43.52989,
    "lon": 172.65287
  },
  {
    "id": "51525",
    "name": "Corsair Dr near Gallaghan Cl",
    "lat": -43.55036,
    "lon": 172.54885
  },
  {
    "id": "52856",
    "name": "Brookside Rd near Stonebrook Dr",
    "lat": -43.60084,
    "lon": 172.36914
  },
  {
    "id": "13249",
    "name": "Kahu Rd near Titoki St",
    "lat": -43.52669,
    "lon": 172.6006
  },
  {
    "id": "14581",
    "name": "Hagley Ave near Selwyn St",
    "lat": -43.53732,
    "lon": 172.62221
  },
  {
    "id": "13254",
    "name": "Clyde Rd near Arts Rd",
    "lat": -43.52388,
    "lon": 172.5887
  },
  {
    "id": "47003",
    "name": "Mcgregors Rd near Ruru Rd",
    "lat": -43.53081,
    "lon": 172.68449
  },
  {
    "id": "40853",
    "name": "Halswell Rd near Warren Cres",
    "lat": -43.56017,
    "lon": 172.58356
  },
  {
    "id": "40848",
    "name": "Wainoni Rd near Avonside Dr",
    "lat": -43.51481,
    "lon": 172.68862
  },
  {
    "id": "52860",
    "name": "Rolleston (Kidman St)",
    "lat": -43.59033,
    "lon": 172.38314
  },
  {
    "id": "17615",
    "name": "Memorial Ave near Grangewood Ln",
    "lat": -43.50411,
    "lon": 172.56704
  },
  {
    "id": "38533",
    "name": "Springfield Rd near Kinloch St",
    "lat": -43.51168,
    "lon": 172.63199
  },
  {
    "id": "53710",
    "name": "Gloucester St near Fitzgerald Ave",
    "lat": -43.52979,
    "lon": 172.65321
  },
  {
    "id": "16764",
    "name": "Wairakei Rd near Blighs Rd",
    "lat": -43.5067,
    "lon": 172.59915
  },
  {
    "id": "36359",
    "name": "Mccormacks Bay Rd near Maffeys Rd",
    "lat": -43.5595,
    "lon": 172.72547
  },
  {
    "id": "50689",
    "name": "Hansons Ln near Haynes Ave",
    "lat": -43.53377,
    "lon": 172.5739
  },
  {
    "id": "51539",
    "name": "The Runway near Kittyhawk Ave",
    "lat": -43.55449,
    "lon": 172.55281
  },
  {
    "id": "50207",
    "name": "Godley Rd",
    "lat": -43.61703,
    "lon": 172.30774
  },
  {
    "id": "10192",
    "name": "Hawthornden Rd near Henridge Pl",
    "lat": -43.50939,
    "lon": 172.55072
  },
  {
    "id": "13220",
    "name": "Kotare St near Kahu Rd",
    "lat": -43.52467,
    "lon": 172.59611
  },
  {
    "id": "11043",
    "name": "Centaurus Rd near Austin Kirk Ln",
    "lat": -43.56527,
    "lon": 172.64783
  },
  {
    "id": "12372",
    "name": "Main North Rd near Swift St",
    "lat": -43.45222,
    "lon": 172.62763
  },
  {
    "id": "46146",
    "name": "Linwood Ave near Cashel St",
    "lat": -43.53296,
    "lon": 172.67236
  },
  {
    "id": "28713",
    "name": "Fitzgerald Ave near Armagh St",
    "lat": -43.52814,
    "lon": 172.65034
  },
  {
    "id": "50691",
    "name": "Hansons Ln near Haynes Ave",
    "lat": -43.53387,
    "lon": 172.57409
  },
  {
    "id": "24350",
    "name": "Emmett St near Riselaw St",
    "lat": -43.5058,
    "lon": 172.65494
  },
  {
    "id": "52873",
    "name": "Cranley St",
    "lat": -43.53352,
    "lon": 172.67542
  },
  {
    "id": "50211",
    "name": "Aylesbury Rd near Runners Rd",
    "lat": -43.61269,
    "lon": 172.31268
  },
  {
    "id": "51541",
    "name": "The Runway near Dalwood Dve",
    "lat": -43.55593,
    "lon": 172.54987
  },
  {
    "id": "53723",
    "name": "Innes Road near Severn Street",
    "lat": -43.50164,
    "lon": 172.63447
  },
  {
    "id": "15887",
    "name": "Main North Rd near Neeves Rd",
    "lat": -43.40365,
    "lon": 172.64579
  },
  {
    "id": "38522",
    "name": "Springfield Rd near Kinloch St",
    "lat": -43.51174,
    "lon": 172.63223
  },
  {
    "id": "16738",
    "name": "Sawyers Arms Rd",
    "lat": -43.48134,
    "lon": 172.59242
  },
  {
    "id": "15405",
    "name": "Papanui",
    "lat": -43.49827,
    "lon": 172.60911
  },
  {
    "id": "13231",
    "name": "Kahu Rd near Girvan St",
    "lat": -43.52504,
    "lon": 172.59814
  },
  {
    "id": "38994",
    "name": "Main South Rd near Canterbury St",
    "lat": -43.54308,
    "lon": 172.53127
  },
  {
    "id": "37663",
    "name": "Burnside High School",
    "lat": -43.50699,
    "lon": 172.57912
  },
  {
    "id": "26542",
    "name": "Estuary Rd near Bellamy Ave",
    "lat": -43.52111,
    "lon": 172.73184
  },
  {
    "id": "23033",
    "name": "Eastgate Mall (Linwood Ave)",
    "lat": -43.5354,
    "lon": 172.67564
  },
  {
    "id": "15414",
    "name": "Papanui Rd near Blighs Rd",
    "lat": -43.50045,
    "lon": 172.61113
  },
  {
    "id": "52887",
    "name": "Salisbury St near Victoria St",
    "lat": -43.52436,
    "lon": 172.63155
  },
  {
    "id": "53734",
    "name": "Marine Parade near Beresford St",
    "lat": -43.50711,
    "lon": 172.73097
  },
  {
    "id": "46133",
    "name": "Gloucester St near Barbadoes St",
    "lat": -43.52991,
    "lon": 172.64446
  },
  {
    "id": "12386",
    "name": "Main North Rd near Factory Rd",
    "lat": -43.44239,
    "lon": 172.63403
  },
  {
    "id": "51556",
    "name": "Wharenui Rd near Janet St",
    "lat": -43.53647,
    "lon": 172.58696
  },
  {
    "id": "38514",
    "name": "Edgeware Rd near Caledonian Rd",
    "lat": -43.51336,
    "lon": 172.63568
  },
  {
    "id": "10171",
    "name": "Hyde Park",
    "lat": -43.51628,
    "lon": 172.54621
  },
  {
    "id": "15860",
    "name": "Woodend Rd near Greenwood Cl",
    "lat": -43.32042,
    "lon": 172.66078
  },
  {
    "id": "24332",
    "name": "Buchanans Rd near Peebles Dr",
    "lat": -43.53372,
    "lon": 172.53957
  },
  {
    "id": "22156",
    "name": "Selwyn St near Ruskin St",
    "lat": -43.54655,
    "lon": 172.62191
  },
  {
    "id": "40824",
    "name": "Wairakei Rd near Jennifer St",
    "lat": -43.50237,
    "lon": 172.59183
  },
  {
    "id": "26999",
    "name": "Gloucester St",
    "lat": -43.52992,
    "lon": 172.6659
  },
  {
    "id": "13208",
    "name": "Guildford St near Wadhurst Pl",
    "lat": -43.50431,
    "lon": 172.57762
  },
  {
    "id": "51560",
    "name": "Wharenui Rd near Riccarton Rd",
    "lat": -43.53127,
    "lon": 172.58616
  },
  {
    "id": "52894",
    "name": "Bealey Ave",
    "lat": -43.52176,
    "lon": 172.62879
  },
  {
    "id": "25660",
    "name": "Westlake Dr near Eskdale Pl",
    "lat": -43.57,
    "lon": 172.55734
  },
  {
    "id": "50230",
    "name": "Two Chain Rd near Aylesbury Rd",
    "lat": -43.60367,
    "lon": 172.30772
  },
  {
    "id": "23482",
    "name": "Radley St near Tavender St",
    "lat": -43.55025,
    "lon": 172.67554
  },
  {
    "id": "12355",
    "name": "Belfast",
    "lat": -43.43927,
    "lon": 172.63608
  },
  {
    "id": "14534",
    "name": "Epsom Rd near Carbine Pl",
    "lat": -43.53328,
    "lon": 172.54922
  },
  {
    "id": "38987",
    "name": "Main South Rd near Tower St",
    "lat": -43.54312,
    "lon": 172.52774
  },
  {
    "id": "13685",
    "name": "Stanmore Rd near Haast St",
    "lat": -43.52749,
    "lon": 172.65699
  },
  {
    "id": "11027",
    "name": "Main South Rd near English St",
    "lat": -43.53309,
    "lon": 172.56574
  },
  {
    "id": "43091",
    "name": "Maidstone Rd near Farnham Pl",
    "lat": -43.51735,
    "lon": 172.5741
  },
  {
    "id": "38505",
    "name": "Barbadoes St near Edgeware Rd",
    "lat": -43.51283,
    "lon": 172.64585
  },
  {
    "id": "53747",
    "name": "Halswell Shops",
    "lat": -43.57958,
    "lon": 172.56682
  },
  {
    "id": "43089",
    "name": "Main South Rd near Carmen Rd",
    "lat": -43.54341,
    "lon": 172.5238
  },
  {
    "id": "10185",
    "name": "Kedleston Dr near Audley Gate",
    "lat": -43.51112,
    "lon": 172.54897
  },
  {
    "id": "36794",
    "name": "Cresswell Ave near Gayhurst Rd",
    "lat": -43.50762,
    "lon": 172.6729
  },
  {
    "id": "33284",
    "name": "Moorhouse Ave near Antigua St",
    "lat": -43.54011,
    "lon": 172.62721
  },
  {
    "id": "23014",
    "name": "Hay St near Kuaka Cres",
    "lat": -43.53285,
    "lon": 172.6853
  },
  {
    "id": "24345",
    "name": "Emmett St near Shirley Rd",
    "lat": -43.50783,
    "lon": 172.65586
  },
  {
    "id": "40807",
    "name": "Wairakei Rd near Greers Rd",
    "lat": -43.49972,
    "lon": 172.58663
  },
  {
    "id": "22160",
    "name": "Halswell Rd near Halswell Junction Rd",
    "lat": -43.58587,
    "lon": 172.57053
  },
  {
    "id": "51573",
    "name": "Wharenui Rd near Riccarton Rd",
    "lat": -43.53164,
    "lon": 172.58639
  },
  {
    "id": "53752",
    "name": "Marine Parade near Beresford Street",
    "lat": -43.50666,
    "lon": 172.73065
  },
  {
    "id": "25673",
    "name": "Westlake",
    "lat": -43.56793,
    "lon": 172.55637
  },
  {
    "id": "23495",
    "name": "Cashmere",
    "lat": -43.58111,
    "lon": 172.63562
  },
  {
    "id": "45262",
    "name": "Rolleston Dr near Renoir Dr",
    "lat": -43.60043,
    "lon": 172.37549
  },
  {
    "id": "38973",
    "name": "Main South Rd near Springs Rd",
    "lat": -43.54326,
    "lon": 172.54319
  },
  {
    "id": "12364",
    "name": "Halswell Rd near Warren Cres",
    "lat": -43.55971,
    "lon": 172.58464
  },
  {
    "id": "37644",
    "name": "Whiteleigh Ave near Leamington St",
    "lat": -43.54221,
    "lon": 172.60549
  },
  {
    "id": "15873",
    "name": "Main North Rd",
    "lat": -43.39887,
    "lon": 172.64884
  },
  {
    "id": "13212",
    "name": "Guildford St near Heath St",
    "lat": -43.5032,
    "lon": 172.57588
  },
  {
    "id": "47440",
    "name": "Clarence St near Dilworth St",
    "lat": -43.53208,
    "lon": 172.6023
  },
  {
    "id": "18901",
    "name": "Seaview Rd",
    "lat": -43.50887,
    "lon": 172.72291
  },
  {
    "id": "54605",
    "name": "Hereford St near Latimer Square",
    "lat": -43.53196,
    "lon": 172.64152
  },
  {
    "id": "47438",
    "name": "Rolleston Dr near Rembrandt Dr",
    "lat": -43.59786,
    "lon": 172.38159
  },
  {
    "id": "14990",
    "name": "Bealey Ave",
    "lat": -43.52204,
    "lon": 172.63652
  },
  {
    "id": "24795",
    "name": "Emmett St near Skipton St",
    "lat": -43.4967,
    "lon": 172.65476
  },
  {
    "id": "24313",
    "name": "Buchanans Rd near Cicada Pl",
    "lat": -43.53279,
    "lon": 172.53663
  },
  {
    "id": "50253",
    "name": "Jones Rd (Templeton)",
    "lat": -43.55635,
    "lon": 172.46802
  },
  {
    "id": "51587",
    "name": "Wharenui Rd near Puna St",
    "lat": -43.53604,
    "lon": 172.58706
  },
  {
    "id": "53768",
    "name": "Birchs Rd near Oaks Dr",
    "lat": -43.63082,
    "lon": 172.49324
  },
  {
    "id": "54614",
    "name": "Hereford St near Latimer Square",
    "lat": -43.53213,
    "lon": 172.64138
  },
  {
    "id": "51103",
    "name": "Ti Rakau Dr near Delta Wy",
    "lat": -43.55174,
    "lon": 172.69498
  },
  {
    "id": "12338",
    "name": "Williams St near Holland Drive",
    "lat": -43.39387,
    "lon": 172.65186
  },
  {
    "id": "11004",
    "name": "Cashmere Rd near Thorrington Rd",
    "lat": -43.5666,
    "lon": 172.63288
  },
  {
    "id": "43070",
    "name": "Maidstone Rd near Farnham Pl",
    "lat": -43.51847,
    "lon": 172.5758
  },
  {
    "id": "37637",
    "name": "Clarence St near Burdale St",
    "lat": -43.53342,
    "lon": 172.6025
  },
  {
    "id": "10159",
    "name": "Kedleston Dr near Apsley Dr",
    "lat": -43.51381,
    "lon": 172.54701
  },
  {
    "id": "13671",
    "name": "Ilam Rd near Montana Ave",
    "lat": -43.52088,
    "lon": 172.57957
  },
  {
    "id": "10163",
    "name": "Kedleston Dr near Greystoke Ln",
    "lat": -43.51377,
    "lon": 172.54681
  },
  {
    "id": "24321",
    "name": "Briggs Rd",
    "lat": -43.49624,
    "lon": 172.65307
  },
  {
    "id": "23476",
    "name": "Cashmere",
    "lat": -43.58123,
    "lon": 172.6355
  },
  {
    "id": "25656",
    "name": "Westlake Dr near Lancewood Dr",
    "lat": -43.57077,
    "lon": 172.55947
  },
  {
    "id": "26503",
    "name": "Estuary Rd near Bellamy Ave",
    "lat": -43.52109,
    "lon": 172.73167
  },
  {
    "id": "26981",
    "name": "Kingsbury Ave near Melford Cl",
    "lat": -43.29647,
    "lon": 172.58607
  },
  {
    "id": "54622",
    "name": "Gardiners Road near Cullahill Street",
    "lat": -43.47931,
    "lon": 172.5838
  },
  {
    "id": "33266",
    "name": "Moorhouse Ave near Montreal St",
    "lat": -43.5401,
    "lon": 172.63011
  },
  {
    "id": "51594",
    "name": "Hereford St near Barbadoes St",
    "lat": -43.53196,
    "lon": 172.64477
  },
  {
    "id": "53775",
    "name": "West Melton shops",
    "lat": -43.5229,
    "lon": 172.37002
  },
  {
    "id": "22141",
    "name": "Barrington Mall (Athelstan St)",
    "lat": -43.55661,
    "lon": 172.62061
  },
  {
    "id": "14523",
    "name": "Moorhouse Ave near Madras St",
    "lat": -43.5398,
    "lon": 172.64336
  },
  {
    "id": "50269",
    "name": "Ellesmere Junction Rd near Mather Pl",
    "lat": -43.64239,
    "lon": 172.42039
  },
  {
    "id": "38956",
    "name": "Main South Rd near Garvins Rd",
    "lat": -43.54307,
    "lon": 172.53956
  },
  {
    "id": "51119",
    "name": "Disraeli St near Braddon St",
    "lat": -43.54209,
    "lon": 172.6239
  },
  {
    "id": "39472",
    "name": "Keyes Rd near Lonsdale St",
    "lat": -43.50703,
    "lon": 172.72154
  },
  {
    "id": "18532",
    "name": "Lake Terrace Rd",
    "lat": -43.49428,
    "lon": 172.66281
  },
  {
    "id": "15020",
    "name": "Williams St near Dale St",
    "lat": -43.3739,
    "lon": 172.66293
  },
  {
    "id": "38145",
    "name": "Dunbars Rd near Westlake Dr",
    "lat": -43.56699,
    "lon": 172.55805
  },
  {
    "id": "26158",
    "name": "Estuary Rd near Sandra St",
    "lat": -43.53021,
    "lon": 172.73562
  },
  {
    "id": "54195",
    "name": "Penruddock Rise near Francis Mill Grove",
    "lat": -43.58465,
    "lon": 172.60316
  },
  {
    "id": "43977",
    "name": "Cranford St near Fraser St",
    "lat": -43.49019,
    "lon": 172.6208
  },
  {
    "id": "55046",
    "name": "Jones Rd near Dawsons Rd",
    "lat": -43.5599,
    "lon": 172.4576
  },
  {
    "id": "30661",
    "name": "Major Hornbrook Rd near Billys Trk",
    "lat": -43.56162,
    "lon": 172.71646
  },
  {
    "id": "32840",
    "name": "Ramahana Rd near Centaurus Rd",
    "lat": -43.56328,
    "lon": 172.6552
  },
  {
    "id": "16358",
    "name": "Carlton Mill Rd near Cheltenham St",
    "lat": -43.5216,
    "lon": 172.62124
  },
  {
    "id": "14179",
    "name": "Parker St near Steele St",
    "lat": -43.54293,
    "lon": 172.51573
  },
  {
    "id": "17689",
    "name": "Memorial Ave near Chilcombe St",
    "lat": -43.51496,
    "lon": 172.58468
  },
  {
    "id": "17207",
    "name": "Riccarton Rd near Bartlett St",
    "lat": -43.52891,
    "lon": 172.61002
  },
  {
    "id": "16362",
    "name": "Rossall St near Rhodes St",
    "lat": -43.52153,
    "lon": 172.61722
  },
  {
    "id": "15031",
    "name": "Williams St near Old North Rd",
    "lat": -43.36002,
    "lon": 172.66468
  },
  {
    "id": "38132",
    "name": "Dunbars Rd near Westlake Dr",
    "lat": -43.56703,
    "lon": 172.5586
  },
  {
    "id": "39464",
    "name": "Keyes Rd near Rawson St",
    "lat": -43.50483,
    "lon": 172.71935
  },
  {
    "id": "32829",
    "name": "Waltham Rd near Rogers St",
    "lat": -43.55216,
    "lon": 172.64812
  },
  {
    "id": "11908",
    "name": "Centaurus Rd near Whaka Tce",
    "lat": -43.56791,
    "lon": 172.64629
  },
  {
    "id": "44815",
    "name": "Buchanans Rd near Dumfries Dr",
    "lat": -43.53161,
    "lon": 172.53276
  },
  {
    "id": "42633",
    "name": "Lyttelton Wharf",
    "lat": -43.60493,
    "lon": 172.72096
  },
  {
    "id": "14180",
    "name": "Colombo St near Salisbury St",
    "lat": -43.5239,
    "lon": 172.63669
  },
  {
    "id": "55051",
    "name": "Jones Rd near Dawsons Rd",
    "lat": -43.56072,
    "lon": 172.45643
  },
  {
    "id": "26162",
    "name": "Rocking Horse Rd near Tern St",
    "lat": -43.551,
    "lon": 172.74807
  },
  {
    "id": "11912",
    "name": "Hoon Hay Rd near Cashmere Rd",
    "lat": -43.57371,
    "lon": 172.61419
  },
  {
    "id": "32838",
    "name": "Centaurus Rd near Ramahana Rd",
    "lat": -43.56281,
    "lon": 172.65625
  },
  {
    "id": "30657",
    "name": "Nayland St near Stoke St",
    "lat": -43.57035,
    "lon": 172.76061
  },
  {
    "id": "50604",
    "name": "Birmingham Dr near Craft Pl",
    "lat": -43.54355,
    "lon": 172.58594
  },
  {
    "id": "14151",
    "name": "South City Mall (Southbound)",
    "lat": -43.53853,
    "lon": 172.63673
  },
  {
    "id": "15480",
    "name": "Pages Rd near Shortland St",
    "lat": -43.51996,
    "lon": 172.69755
  },
  {
    "id": "38121",
    "name": "Dunbars Rd near Lancewood Dr",
    "lat": -43.56794,
    "lon": 172.56126
  },
  {
    "id": "26136",
    "name": "Rocking Horse Rd near Whimbrels Wy",
    "lat": -43.55414,
    "lon": 172.74943
  },
  {
    "id": "42622",
    "name": "Duncan St near Campbell St",
    "lat": -43.57749,
    "lon": 172.75817
  },
  {
    "id": "43954",
    "name": "Marshland Rd near Cotton St",
    "lat": -43.4955,
    "lon": 172.66168
  },
  {
    "id": "55067",
    "name": "Apsley Drive",
    "lat": -43.51556,
    "lon": 172.5465
  },
  {
    "id": "30642",
    "name": "Nayland St near Hardwicke St",
    "lat": -43.57158,
    "lon": 172.76271
  },
  {
    "id": "28797",
    "name": "Bealey Ave near Madras St",
    "lat": -43.521,
    "lon": 172.64206
  },
  {
    "id": "47074",
    "name": "Pages Rd near Portchester St",
    "lat": -43.51349,
    "lon": 172.7107
  },
  {
    "id": "50615",
    "name": "Birmingham Dr near Craft Pl",
    "lat": -43.54344,
    "lon": 172.58594
  },
  {
    "id": "15008",
    "name": "Kaiapoi (McDonalds)",
    "lat": -43.38466,
    "lon": 172.65631
  },
  {
    "id": "18521",
    "name": "Marshland Rd near Voss St",
    "lat": -43.49787,
    "lon": 172.66191
  },
  {
    "id": "17670",
    "name": "Memorial Ave near Kendal Ave",
    "lat": -43.50165,
    "lon": 172.56312
  },
  {
    "id": "15012",
    "name": "Williams St near Davie St",
    "lat": -43.37936,
    "lon": 172.66221
  },
  {
    "id": "16343",
    "name": "Carlton Mill Rd near Exeter St",
    "lat": -43.52095,
    "lon": 172.62323
  },
  {
    "id": "38113",
    "name": "Dunbars Rd near Balkwell St",
    "lat": -43.56992,
    "lon": 172.56625
  },
  {
    "id": "40436",
    "name": "Blenheim Rd near Hansons Ln",
    "lat": -43.53916,
    "lon": 172.57355
  },
  {
    "id": "43949",
    "name": "Marshland Rd near Hercules St",
    "lat": -43.50523,
    "lon": 172.66271
  },
  {
    "id": "42614",
    "name": "Main North Rd near Barnes Rd",
    "lat": -43.47263,
    "lon": 172.61741
  },
  {
    "id": "55079",
    "name": "Selwyn Health Hub",
    "lat": -43.5916,
    "lon": 172.38291
  },
  {
    "id": "2854",
    "name": "The Hub Hornby",
    "lat": -43.54216,
    "lon": 172.52443
  },
  {
    "id": "28323",
    "name": "Birchs Rd near Robinsons Rd",
    "lat": -43.6139,
    "lon": 172.50864
  },
  {
    "id": "26143",
    "name": "Estuary Rd near Jellicoe St",
    "lat": -43.53235,
    "lon": 172.73656
  },
  {
    "id": "32817",
    "name": "Wilsons Rd near Timbertop Ln",
    "lat": -43.55399,
    "lon": 172.65093
  },
  {
    "id": "30635",
    "name": "Marriner St near Richmond Hill Wlk",
    "lat": -43.56731,
    "lon": 172.75766
  },
  {
    "id": "52802",
    "name": "Brookside Rd near Stonebrook Dr",
    "lat": -43.60058,
    "lon": 172.36922
  },
  {
    "id": "38580",
    "name": "Merivale Mall",
    "lat": -43.51149,
    "lon": 172.62105
  },
  {
    "id": "18972",
    "name": "New Brighton (Beresford St)",
    "lat": -43.50843,
    "lon": 172.72706
  },
  {
    "id": "13283",
    "name": "The Palms (Marshland Rd- vet side)",
    "lat": -43.50666,
    "lon": 172.66262
  },
  {
    "id": "50627",
    "name": "Annex Rd near Nazareth Ave",
    "lat": -43.54331,
    "lon": 172.58179
  },
  {
    "id": "19820",
    "name": "Veitches Rd near Grampian St",
    "lat": -43.48127,
    "lon": 172.60333
  },
  {
    "id": "17643",
    "name": "Memorial Ave near Burnside Park",
    "lat": -43.50297,
    "lon": 172.56523
  },
  {
    "id": "30619",
    "name": "Main Rd near Marriner St",
    "lat": -43.56608,
    "lon": 172.75595
  },
  {
    "id": "14133",
    "name": "Manurere St near Wycola Ave",
    "lat": -43.5354,
    "lon": 172.52021
  },
  {
    "id": "42605",
    "name": "Van Asch St near Denman St",
    "lat": -43.57671,
    "lon": 172.76074
  },
  {
    "id": "55080",
    "name": "South Belt near Buckleys Rd",
    "lat": -43.31849,
    "lon": 172.59428
  },
  {
    "id": "43931",
    "name": "Marshland Rd near Mcsaveneys Rd",
    "lat": -43.48479,
    "lon": 172.66059
  },
  {
    "id": "40427",
    "name": "Memorial Ave near Grahams Rd",
    "lat": -43.50702,
    "lon": 172.57168
  },
  {
    "id": "26590",
    "name": "Buckleys Rd near Rudds Rd",
    "lat": -43.52651,
    "lon": 172.68216
  },
  {
    "id": "30626",
    "name": "Nayland St near Menzies St",
    "lat": -43.5729,
    "lon": 172.76492
  },
  {
    "id": "39438",
    "name": "Travis Road near Bower Ave",
    "lat": -43.49502,
    "lon": 172.70996
  },
  {
    "id": "32801",
    "name": "Waltham Rd near Austin St",
    "lat": -43.55049,
    "lon": 172.64668
  },
  {
    "id": "38109",
    "name": "Halswell Rd near Dunbars Rd",
    "lat": -43.57235,
    "lon": 172.5707
  },
  {
    "id": "50636",
    "name": "Annex Rd near Birmingham Dr",
    "lat": -43.54353,
    "lon": 172.58289
  },
  {
    "id": "52818",
    "name": "Brookside Rd near East Maddisons Rd",
    "lat": -43.60526,
    "lon": 172.36472
  },
  {
    "id": "36392",
    "name": "St Andrews Hill Rd near Marama Cres",
    "lat": -43.55785,
    "lon": 172.71624
  },
  {
    "id": "19831",
    "name": "Claridges Rd near Opal Pl",
    "lat": -43.47619,
    "lon": 172.60078
  },
  {
    "id": "13296",
    "name": "Lake Terrace Rd near Giles Pl",
    "lat": -43.49377,
    "lon": 172.66321
  },
  {
    "id": "28306",
    "name": "Dunbars Rd near Hindess St",
    "lat": -43.56803,
    "lon": 172.56117
  },
  {
    "id": "55098",
    "name": "Knights Stream Park",
    "lat": -43.57016,
    "lon": 172.53865
  },
  {
    "id": "43920",
    "name": "Bush St near Strachan Pl",
    "lat": -43.31524,
    "lon": 172.59037
  },
  {
    "id": "40415",
    "name": "Halswell Rd near Rowley Ave",
    "lat": -43.55808,
    "lon": 172.58709
  },
  {
    "id": "20818",
    "name": "Queenspark Dr near Bower Ave",
    "lat": -43.48231,
    "lon": 172.71101
  },
  {
    "id": "28784",
    "name": "Fitzgerald Ave near Alexandra St",
    "lat": -43.52281,
    "lon": 172.65034
  },
  {
    "id": "46198",
    "name": "Rolleston Dr near Renoir Dr",
    "lat": -43.60018,
    "lon": 172.3759
  },
  {
    "id": "15479",
    "name": "Pages Rd near Breezes Rd",
    "lat": -43.5178,
    "lon": 172.70103
  },
  {
    "id": "38579",
    "name": "Springfield Rd near St Albans St",
    "lat": -43.50982,
    "lon": 172.63051
  },
  {
    "id": "14146",
    "name": "Manurere St near Ranui St",
    "lat": -43.53335,
    "lon": 172.52331
  },
  {
    "id": "50643",
    "name": "Annex Rd near Railway",
    "lat": -43.54016,
    "lon": 172.57736
  },
  {
    "id": "52825",
    "name": "East Maddisons Rd near Lowes Rd",
    "lat": -43.60785,
    "lon": 172.36577
  },
  {
    "id": "17658",
    "name": "Aylesbury Rd near Queens Dr",
    "lat": -43.61259,
    "lon": 172.31279
  },
  {
    "id": "40882",
    "name": "Eastgate Mall (Buckleys Rd)",
    "lat": -43.53236,
    "lon": 172.67485
  },
  {
    "id": "36385",
    "name": "St Andrews Hill Rd near The Brae",
    "lat": -43.55779,
    "lon": 172.71347
  },
  {
    "id": "13265",
    "name": "North Pde near Averill St",
    "lat": -43.51175,
    "lon": 172.66164
  },
  {
    "id": "41733",
    "name": "Rangiora Woodend Rd near Chinnerys Rd",
    "lat": -43.31852,
    "lon": 172.65658
  },
  {
    "id": "43912",
    "name": "Marshland Rd near Mcsaveneys Rd",
    "lat": -43.48481,
    "lon": 172.6604
  },
  {
    "id": "24397",
    "name": "Gerald St near Murray Pl",
    "lat": -43.64115,
    "lon": 172.47711
  },
  {
    "id": "43908",
    "name": "The Palms (Shirley Rd)",
    "lat": -43.50811,
    "lon": 172.66154
  },
  {
    "id": "26574",
    "name": "Oram Ave near Rodney St",
    "lat": -43.51316,
    "lon": 172.73156
  },
  {
    "id": "30603",
    "name": "Moorhouse Ave near Manchester St",
    "lat": -43.53978,
    "lon": 172.64139
  },
  {
    "id": "38567",
    "name": "Springfield Rd near St Albans St",
    "lat": -43.5097,
    "lon": 172.63015
  },
  {
    "id": "51502",
    "name": "Corsair Dr near Grebe Pl",
    "lat": -43.54779,
    "lon": 172.54436
  },
  {
    "id": "14114",
    "name": "Hagley Ave near Hagley College",
    "lat": -43.53732,
    "lon": 172.62249
  },
  {
    "id": "18955",
    "name": "Tuam St near England St",
    "lat": -43.53547,
    "lon": 172.66299
  },
  {
    "id": "50658",
    "name": "Annex Rd near Railway",
    "lat": -43.5404,
    "lon": 172.57788
  },
  {
    "id": "36371",
    "name": "Major Hornbrook Rd near Billys Trk",
    "lat": -43.56152,
    "lon": 172.71665
  },
  {
    "id": "52839",
    "name": "Rolleston Terminus",
    "lat": -43.61023,
    "lon": 172.36408
  },
  {
    "id": "14122",
    "name": "Gilberthorpes Rd near Roberts Rd",
    "lat": -43.53704,
    "lon": 172.5177
  },
  {
    "id": "38551",
    "name": "St Albans St near Donald Pl",
    "lat": -43.51174,
    "lon": 172.62544
  },
  {
    "id": "20802",
    "name": "Queenspark Dr near Donnington St",
    "lat": -43.48234,
    "lon": 172.70764
  },
  {
    "id": "50662",
    "name": "Hansons Ln near Arthur St",
    "lat": -43.53832,
    "lon": 172.57456
  },
  {
    "id": "52841",
    "name": "Brookside Rd near East Maddisons Rd",
    "lat": -43.60532,
    "lon": 172.36482
  },
  {
    "id": "13277",
    "name": "North Parade",
    "lat": -43.50876,
    "lon": 172.66282
  },
  {
    "id": "16786",
    "name": "Sawyers Arms Rd near Cotswold Ave",
    "lat": -43.47977,
    "lon": 172.58863
  },
  {
    "id": "17636",
    "name": "Veitches Rd near Grampian St",
    "lat": -43.48115,
    "lon": 172.60332
  },
  {
    "id": "18257",
    "name": "Marine Pde near Bowhill Rd",
    "lat": -43.49485,
    "lon": 172.72639
  },
  {
    "id": "20576",
    "name": "Bower Ave near Saltaire St",
    "lat": -43.49451,
    "lon": 172.71092
  },
  {
    "id": "23606",
    "name": "Colombo St near Thorrington Rd",
    "lat": -43.56469,
    "lon": 172.63698
  },
  {
    "id": "40188",
    "name": "Bower Ave near Pinewood Ave",
    "lat": -43.48881,
    "lon": 172.7118
  },
  {
    "id": "43210",
    "name": "Northwood Blvd near Mounter Ave",
    "lat": -43.45935,
    "lon": 172.61729
  },
  {
    "id": "16078",
    "name": "Rossall St near Glandovey Rd",
    "lat": -43.5137,
    "lon": 172.60974
  },
  {
    "id": "41039",
    "name": "Opawa Rd near Mary McLean Pl",
    "lat": -43.5563,
    "lon": 172.67134
  },
  {
    "id": "24931",
    "name": "Carmen Rd near Waterloo Rd",
    "lat": -43.537,
    "lon": 172.52893
  },
  {
    "id": "39192",
    "name": "New Brighton (Oram Ave)",
    "lat": -43.50809,
    "lon": 172.72961
  },
  {
    "id": "28055",
    "name": "Blenheim Rd near Curletts Rd",
    "lat": -43.53936,
    "lon": 172.56595
  },
  {
    "id": "11626",
    "name": "Gamblins Rd near Ngaio St",
    "lat": -43.55907,
    "lon": 172.6512
  },
  {
    "id": "33896",
    "name": "Halswell Rd near O'halloran Dr",
    "lat": -43.59086,
    "lon": 172.56844
  },
  {
    "id": "36929",
    "name": "Aldwins Rd near Matlock St",
    "lat": -43.54177,
    "lon": 172.66646
  },
  {
    "id": "29389",
    "name": "Cranford St near Malvern St",
    "lat": -43.50361,
    "lon": 172.63356
  },
  {
    "id": "55203",
    "name": "Harbour View Terrace",
    "lat": -43.60446,
    "lon": 172.69308
  },
  {
    "id": "10775",
    "name": "Guildford St near Heath St",
    "lat": -43.50332,
    "lon": 172.5759
  },
  {
    "id": "33416",
    "name": "Cashmere Rd near Kaiwara St",
    "lat": -43.57458,
    "lon": 172.61076
  },
  {
    "id": "40174",
    "name": "Kaiapoi (Police Station)",
    "lat": -43.38186,
    "lon": 172.65871
  },
  {
    "id": "39185",
    "name": "Keyes Rd",
    "lat": -43.49808,
    "lon": 172.7169
  },
  {
    "id": "44532",
    "name": "Oxford Rd near Fairview Briars",
    "lat": -43.30573,
    "lon": 172.57781
  },
  {
    "id": "24949",
    "name": "Carmen Rd",
    "lat": -43.52955,
    "lon": 172.53321
  },
  {
    "id": "20582",
    "name": "Bower Ave near Dick Taylor Dr",
    "lat": -43.49206,
    "lon": 172.71129
  },
  {
    "id": "42358",
    "name": "Bridle Path Rd near Port Hills Rd",
    "lat": -43.58206,
    "lon": 172.70808
  },
  {
    "id": "16084",
    "name": "Strowan Rd near Lloyd St",
    "lat": -43.51084,
    "lon": 172.60729
  },
  {
    "id": "28064",
    "name": "Blenheim Rd near Curletts Rd",
    "lat": -43.53947,
    "lon": 172.56939
  },
  {
    "id": "33400",
    "name": "Penruddock Rse near Sedgwick Wy",
    "lat": -43.57978,
    "lon": 172.60286
  },
  {
    "id": "36917",
    "name": "Aldwins Rd near Bass St",
    "lat": -43.53911,
    "lon": 172.66825
  },
  {
    "id": "10308",
    "name": "Maidstone Rd near Colina St",
    "lat": -43.51681,
    "lon": 172.55749
  },
  {
    "id": "33883",
    "name": "Halswell Rd near Village Lane",
    "lat": -43.5844,
    "lon": 172.57042
  },
  {
    "id": "32552",
    "name": "Brougham St near Albemarle St",
    "lat": -43.54758,
    "lon": 172.64119
  },
  {
    "id": "12960",
    "name": "Papanui Rd near Hawthorne St",
    "lat": -43.50216,
    "lon": 172.6127
  },
  {
    "id": "10781",
    "name": "Guildford St near Heath St",
    "lat": -43.50429,
    "lon": 172.5774
  },
  {
    "id": "55219",
    "name": "Barrington Mall",
    "lat": -43.55667,
    "lon": 172.62084
  },
  {
    "id": "13811",
    "name": "Kaiapoi Golf Course",
    "lat": -43.36971,
    "lon": 172.66392
  },
  {
    "id": "21886",
    "name": "Aston Dr near Orlando Cres",
    "lat": -43.48315,
    "lon": 172.71993
  },
  {
    "id": "42343",
    "name": "Head St near Dryden St",
    "lat": -43.57561,
    "lon": 172.76558
  },
  {
    "id": "44521",
    "name": "Kingsbury Ave near Windsor Ct",
    "lat": -43.29724,
    "lon": 172.58164
  },
  {
    "id": "18235",
    "name": "Marine Pde near Hawke St",
    "lat": -43.50549,
    "lon": 172.73037
  },
  {
    "id": "40161",
    "name": "Wainoni Rd near Breezes Rd",
    "lat": -43.51079,
    "lon": 172.69472
  },
  {
    "id": "41018",
    "name": "Brittan Tce near Simeon Qy",
    "lat": -43.60313,
    "lon": 172.71181
  },
  {
    "id": "17380",
    "name": "Veitches Rd near Cavendish Rd",
    "lat": -43.48127,
    "lon": 172.60611
  },
  {
    "id": "39171",
    "name": "Keyes Rd near Sinclair St",
    "lat": -43.50169,
    "lon": 172.71854
  },
  {
    "id": "16050",
    "name": "Rossall St near Office Rd",
    "lat": -43.5162,
    "lon": 172.61317
  },
  {
    "id": "11603",
    "name": "Centaurus Rd near Torvill & Dean Ln",
    "lat": -43.5694,
    "lon": 172.63768
  },
  {
    "id": "29362",
    "name": "Cranford St near Berwick St",
    "lat": -43.50805,
    "lon": 172.63756
  },
  {
    "id": "12939",
    "name": "Lincoln Rd near Torrens Rd",
    "lat": -43.55062,
    "lon": 172.60012
  },
  {
    "id": "55226",
    "name": "Rocking Horse Rd near Petrel Ln",
    "lat": -43.55492,
    "lon": 172.74959
  },
  {
    "id": "10752",
    "name": "Whitby St near Everest St",
    "lat": -43.49866,
    "lon": 172.56863
  },
  {
    "id": "33877",
    "name": "Halswell Rd near Glovers Rd",
    "lat": -43.59307,
    "lon": 172.56566
  },
  {
    "id": "36901",
    "name": "Aldwins Rd near Harrow St",
    "lat": -43.53617,
    "lon": 172.67049
  },
  {
    "id": "16066",
    "name": "Rossall St near Leinster Rd",
    "lat": -43.51473,
    "lon": 172.61184
  },
  {
    "id": "39163",
    "name": "Bassett St near Parnwell St",
    "lat": -43.49676,
    "lon": 172.68833
  },
  {
    "id": "44513",
    "name": "High St near Stephen St",
    "lat": -43.30471,
    "lon": 172.58465
  },
  {
    "id": "40157",
    "name": "Wainoni Rd near Orrick Cres",
    "lat": -43.50682,
    "lon": 172.70122
  },
  {
    "id": "18242",
    "name": "New Brighton (Oram Ave)",
    "lat": -43.50823,
    "lon": 172.72994
  },
  {
    "id": "41002",
    "name": "Tuam St near Percy St",
    "lat": -43.5355,
    "lon": 172.65886
  },
  {
    "id": "19574",
    "name": "Grampian St near Cavendish Rd",
    "lat": -43.47708,
    "lon": 172.60568
  },
  {
    "id": "42336",
    "name": "Bridle Path Rd",
    "lat": -43.58362,
    "lon": 172.7071
  },
  {
    "id": "20569",
    "name": "Bower Ave near Palmers Rd",
    "lat": -43.49603,
    "lon": 172.7107
  },
  {
    "id": "33865",
    "name": "Halswell Rd near Nicholls Rd",
    "lat": -43.58096,
    "lon": 172.56797
  },
  {
    "id": "10768",
    "name": "Sheffield Cres near Wairakei Rd",
    "lat": -43.49008,
    "lon": 172.56367
  },
  {
    "id": "11619",
    "name": "Centaurus Rd near St Martins Rd",
    "lat": -43.56195,
    "lon": 172.65048
  },
  {
    "id": "29370",
    "name": "Cranford St near Westminster St",
    "lat": -43.50606,
    "lon": 172.63579
  },
  {
    "id": "12941",
    "name": "Main North Rd near Belfast Rd",
    "lat": -43.44948,
    "lon": 172.62935
  },
  {
    "id": "40142",
    "name": "Wainoni Rd near Portsmouth St",
    "lat": -43.50805,
    "lon": 172.69898
  },
  {
    "id": "21864",
    "name": "Effingham St near Monowai Cres",
    "lat": -43.48955,
    "lon": 172.71772
  },
  {
    "id": "41471",
    "name": "Mairehau Rd near Putake Dr",
    "lat": -43.47956,
    "lon": 172.69226
  },
  {
    "id": "17367",
    "name": "Memorial Ave near Avice Hill Reserve",
    "lat": -43.49828,
    "lon": 172.55822
  },
  {
    "id": "39159",
    "name": "Bassett St near Vivian St",
    "lat": -43.49345,
    "lon": 172.69078
  },
  {
    "id": "28017",
    "name": "Creyke Rd",
    "lat": -43.52221,
    "lon": 172.58835
  },
  {
    "id": "44509",
    "name": "Kingsbury Ave near Regent Ave",
    "lat": -43.29733,
    "lon": 172.58086
  },
  {
    "id": "15181",
    "name": "Ferry Rd near Manning Pl",
    "lat": -43.54371,
    "lon": 172.66837
  },
  {
    "id": "42327",
    "name": "Bridle Path Rd near Ferrymead Park Dr",
    "lat": -43.56376,
    "lon": 172.70883
  },
  {
    "id": "53061",
    "name": "Manchester St Super Stop",
    "lat": -43.53137,
    "lon": 172.63953
  },
  {
    "id": "10734",
    "name": "Teesdale St near Deepdale St",
    "lat": -43.49407,
    "lon": 172.567
  },
  {
    "id": "32523",
    "name": "Brougham St near Wilsons Rd",
    "lat": -43.54823,
    "lon": 172.65216
  },
  {
    "id": "33854",
    "name": "Larsens Rd near Glovers Rd",
    "lat": -43.59304,
    "lon": 172.56911
  },
  {
    "id": "12918",
    "name": "Halswell Rd near Tankerville Rd",
    "lat": -43.55655,
    "lon": 172.59009
  },
  {
    "id": "28491",
    "name": "Fitzgerald Ave near River Rd",
    "lat": -43.52554,
    "lon": 172.65083
  },
  {
    "id": "18219",
    "name": "Stanmore Rd near London St",
    "lat": -43.51985,
    "lon": 172.65645
  },
  {
    "id": "39144",
    "name": "Keyes Rd near Gresham Tce",
    "lat": -43.5013,
    "lon": 172.71857
  },
  {
    "id": "18226",
    "name": "Marine Pde near Lonsdale St",
    "lat": -43.50238,
    "lon": 172.729
  },
  {
    "id": "17379",
    "name": "Memorial Ave near Spitfire Square",
    "lat": -43.49048,
    "lon": 172.54582
  },
  {
    "id": "40135",
    "name": "Cavendish Rd near Barnes Rd",
    "lat": -43.47332,
    "lon": 172.60687
  },
  {
    "id": "24908",
    "name": "Yaldhurst Rd near Curletts Rd",
    "lat": -43.53081,
    "lon": 172.56868
  },
  {
    "id": "15199",
    "name": "Main North Rd",
    "lat": -43.44004,
    "lon": 172.63587
  },
  {
    "id": "42793",
    "name": "Nayland St near Head St",
    "lat": -43.57403,
    "lon": 172.76658
  },
  {
    "id": "16045",
    "name": "Wairakei Rd near Spalding St",
    "lat": -43.49742,
    "lon": 172.58047
  },
  {
    "id": "38291",
    "name": "Riccarton Rd near Shand Cres",
    "lat": -43.53055,
    "lon": 172.59057
  },
  {
    "id": "53074",
    "name": "Manchester St Super Stop",
    "lat": -43.53077,
    "lon": 172.63975
  },
  {
    "id": "42315",
    "name": "Masham Rd near Kintyre Dr",
    "lat": -43.5226,
    "lon": 172.533
  },
  {
    "id": "12925",
    "name": "Papanui Rd near Rugby St",
    "lat": -43.51355,
    "lon": 172.62291
  },
  {
    "id": "10747",
    "name": "Teesdale St near Tay St",
    "lat": -43.49657,
    "lon": 172.56891
  },
  {
    "id": "32510",
    "name": "Opawa Rd near Hawford Rd",
    "lat": -43.55305,
    "lon": 172.66479
  },
  {
    "id": "29358",
    "name": "Cranford St near Winton St",
    "lat": -43.51006,
    "lon": 172.63824
  },
  {
    "id": "32990",
    "name": "Opawa",
    "lat": -43.55523,
    "lon": 172.66872
  },
  {
    "id": "33849",
    "name": "Patterson Tce near Ridder Pl",
    "lat": -43.57742,
    "lon": 172.55663
  },
  {
    "id": "20511",
    "name": "Queenspark Dr near Chadlington St",
    "lat": -43.47417,
    "lon": 172.6951
  },
  {
    "id": "18675",
    "name": "Mairehau Rd near Tapiri St",
    "lat": -43.48491,
    "lon": 172.70149
  },
  {
    "id": "42786",
    "name": "Nayland St near Hardwicke St",
    "lat": -43.57158,
    "lon": 172.76243
  },
  {
    "id": "17346",
    "name": "Memorial Ave near Burnside Park",
    "lat": -43.50247,
    "lon": 172.56484
  },
  {
    "id": "16499",
    "name": "Wairakei Rd near Abros Pl",
    "lat": -43.49005,
    "lon": 172.56952
  },
  {
    "id": "38289",
    "name": "Riccarton Rd near Paeroa St",
    "lat": -43.53073,
    "lon": 172.58811
  },
  {
    "id": "16013",
    "name": "Wairakei Rd near Aorangi Rd",
    "lat": -43.50377,
    "lon": 172.5949
  },
  {
    "id": "39137",
    "name": "Hawke St near Convoy St",
    "lat": -43.50715,
    "lon": 172.72537
  },
  {
    "id": "40126",
    "name": "Wainoni Rd near Orrick Cres",
    "lat": -43.50662,
    "lon": 172.70128
  },
  {
    "id": "29327",
    "name": "Regent's Park Dr near Primrose Hill Ln",
    "lat": -43.47084,
    "lon": 172.61106
  },
  {
    "id": "42304",
    "name": "Bridle Path Rd near Ferrymead Park Dr",
    "lat": -43.56657,
    "lon": 172.70882
  },
  {
    "id": "53088",
    "name": "Bus Interchange (Platform C)",
    "lat": -43.53446,
    "lon": 172.63771
  },
  {
    "id": "33831",
    "name": "Oakridge St near Nicholls Rd",
    "lat": -43.57973,
    "lon": 172.56343
  },
  {
    "id": "26297",
    "name": "Rocking Horse Rd near Torea Ln",
    "lat": -43.55369,
    "lon": 172.7491
  },
  {
    "id": "32506",
    "name": "Opawa Rd near Locarno St",
    "lat": -43.55117,
    "lon": 172.66179
  },
  {
    "id": "32988",
    "name": "Opawa",
    "lat": -43.55394,
    "lon": 172.66589
  },
  {
    "id": "50810",
    "name": "Lyttelton Jetty",
    "lat": -43.60529,
    "lon": 172.7222
  },
  {
    "id": "10710",
    "name": "Sir William Pickering Dr near Roydvale Ave",
    "lat": -43.4985,
    "lon": 172.56072
  },
  {
    "id": "42772",
    "name": "Colenso St near Menzies St",
    "lat": -43.5755,
    "lon": 172.76299
  },
  {
    "id": "18203",
    "name": "Stanmore Rd near Warwick St",
    "lat": -43.52132,
    "lon": 172.65647
  },
  {
    "id": "17351",
    "name": "Memorial Ave near Roydvale Ave",
    "lat": -43.49998,
    "lon": 172.56086
  },
  {
    "id": "53090",
    "name": "Bus Interchange (Platform D)",
    "lat": -43.53446,
    "lon": 172.63805
  },
  {
    "id": "36098",
    "name": "Moorhouse Ave near Manchester St",
    "lat": -43.54007,
    "lon": 172.64128
  },
  {
    "id": "55274",
    "name": "Huntsbury",
    "lat": -43.57426,
    "lon": 172.65214
  },
  {
    "id": "38270",
    "name": "Springs Rd near Amyes Rd",
    "lat": -43.55193,
    "lon": 172.53426
  },
  {
    "id": "33820",
    "name": "Halswell Shops",
    "lat": -43.57921,
    "lon": 172.56617
  },
  {
    "id": "12902",
    "name": "Papanui Rd near Weston Rd",
    "lat": -43.50737,
    "lon": 172.61729
  },
  {
    "id": "10723",
    "name": "Roydvale Ave near O'connor Pl",
    "lat": -43.49676,
    "lon": 172.5634
  },
  {
    "id": "32974",
    "name": "Opawa Rd near Cholmondeley Ave",
    "lat": -43.55178,
    "lon": 172.66254
  },
  {
    "id": "30795",
    "name": "Main Rd near Augusta St",
    "lat": -43.56186,
    "lon": 172.73892
  },
  {
    "id": "28489",
    "name": "Blenheim Rd near Curletts Rd",
    "lat": -43.53928,
    "lon": 172.57033
  },
  {
    "id": "50823",
    "name": "Diamond Harbour Jetty",
    "lat": -43.62337,
    "lon": 172.73652
  },
  {
    "id": "21024",
    "name": "Gloucester St near England St",
    "lat": -43.52979,
    "lon": 172.66158
  },
  {
    "id": "45477",
    "name": "Aidanfield Dr near Bibiana St",
    "lat": -43.56582,
    "lon": 172.57434
  },
  {
    "id": "23203",
    "name": "Hackthorne Rd near Dyers Pass Rd",
    "lat": -43.57678,
    "lon": 172.63098
  },
  {
    "id": "25866",
    "name": "Dunbars Rd near Balkwell St",
    "lat": -43.57025,
    "lon": 172.56688
  },
  {
    "id": "24537",
    "name": "Springs Rd near Dufek Cres",
    "lat": -43.54989,
    "lon": 172.53774
  },
  {
    "id": "26714",
    "name": "Gloucester St near England St",
    "lat": -43.52991,
    "lon": 172.66156
  },
  {
    "id": "33018",
    "name": "Mccarthy St near Rowley Ave",
    "lat": -43.56341,
    "lon": 172.5887
  },
  {
    "id": "32167",
    "name": "Major Hornbrook Rd near Muritai Tce",
    "lat": -43.56577,
    "lon": 172.71692
  },
  {
    "id": "22351",
    "name": "Wales St near Shamrock Pl",
    "lat": -43.57983,
    "lon": 172.56135
  },
  {
    "id": "36521",
    "name": "Waimairi Rd near Brulay Cts",
    "lat": -43.52708,
    "lon": 172.57353
  },
  {
    "id": "37853",
    "name": "Aldwins Rd near Bass St",
    "lat": -43.53911,
    "lon": 172.66796
  },
  {
    "id": "11223",
    "name": "Lyttelton St near Conway St",
    "lat": -43.56589,
    "lon": 172.61487
  },
  {
    "id": "12551",
    "name": "Lincoln Rd and Parade Ct",
    "lat": -43.54582,
    "lon": 172.60778
  },
  {
    "id": "51249",
    "name": "Sir William Pickering Dr",
    "lat": -43.49708,
    "lon": 172.55864
  },
  {
    "id": "13882",
    "name": "Kotare St",
    "lat": -43.52224,
    "lon": 172.59047
  },
  {
    "id": "54755",
    "name": "West Belt",
    "lat": -43.29631,
    "lon": 172.57741
  },
  {
    "id": "13404",
    "name": "Woodbury St near Glenharrow Ave",
    "lat": -43.51799,
    "lon": 172.54911
  },
  {
    "id": "10377",
    "name": "Kedleston Dr near Hatfield Pl",
    "lat": -43.51139,
    "lon": 172.54636
  },
  {
    "id": "14736",
    "name": "Moorhouse Ave near Washington Wy",
    "lat": -43.54008,
    "lon": 172.64484
  },
  {
    "id": "53429",
    "name": "Williams St (Mobil Kaiapoi)",
    "lat": -43.38911,
    "lon": 172.65421
  },
  {
    "id": "23219",
    "name": "Hackthorne Rd near Stambridge Pl",
    "lat": -43.57735,
    "lon": 172.62639
  },
  {
    "id": "10383",
    "name": "Maidstone Rd near Derenzy Pl",
    "lat": -43.51615,
    "lon": 172.55392
  },
  {
    "id": "32151",
    "name": "Major Hornbrook Rd near Rockview Pl",
    "lat": -43.57083,
    "lon": 172.71854
  },
  {
    "id": "24544",
    "name": "Bentley St near Cutts Rd",
    "lat": -43.51976,
    "lon": 172.54339
  },
  {
    "id": "26722",
    "name": "Kippenberger Ave near East Belt",
    "lat": -43.30267,
    "lon": 172.60137
  },
  {
    "id": "22367",
    "name": "Barrington St near Conway St",
    "lat": -43.56106,
    "lon": 172.62325
  },
  {
    "id": "23699",
    "name": "Wilsons Rd",
    "lat": -43.56203,
    "lon": 172.65707
  },
  {
    "id": "46318",
    "name": "Mandeville St near Kyle St",
    "lat": -43.5324,
    "lon": 172.6066
  },
  {
    "id": "51254",
    "name": "Riccarton Ave (Hospital)",
    "lat": -43.53371,
    "lon": 172.62196
  },
  {
    "id": "54764",
    "name": "West Belt",
    "lat": -43.29646,
    "lon": 172.57728
  },
  {
    "id": "33485",
    "name": "Sedgwick Way near Woodside Common",
    "lat": -43.58021,
    "lon": 172.60422
  },
  {
    "id": "13895",
    "name": "Williams St near Cass St",
    "lat": -43.38046,
    "lon": 172.66099
  },
  {
    "id": "21030",
    "name": "Gloucester St",
    "lat": -43.52979,
    "lon": 172.66656
  },
  {
    "id": "14743",
    "name": "Park Tce near Peterborough St",
    "lat": -43.52539,
    "lon": 172.62807
  },
  {
    "id": "53438",
    "name": "Kaiapoi High School",
    "lat": -43.38659,
    "lon": 172.64584
  },
  {
    "id": "11234",
    "name": "Frankleigh St near Alvarez Pl",
    "lat": -43.55914,
    "lon": 172.61941
  },
  {
    "id": "44131",
    "name": "Rocking Horse Rd near Penguin St",
    "lat": -43.5456,
    "lon": 172.74519
  },
  {
    "id": "13415",
    "name": "Staveley St",
    "lat": -43.51902,
    "lon": 172.55353
  },
  {
    "id": "12567",
    "name": "Lincoln Rd near Nairn St",
    "lat": -43.54823,
    "lon": 172.60369
  },
  {
    "id": "46789",
    "name": "Pages Rd near Woodham Rd",
    "lat": -43.52562,
    "lon": 172.68349
  },
  {
    "id": "24516",
    "name": "Cutts Rd near Yaldhurst Rd",
    "lat": -43.52246,
    "lon": 172.54253
  },
  {
    "id": "20152",
    "name": "Hills Rd near Gresford St",
    "lat": -43.51638,
    "lon": 172.6516
  },
  {
    "id": "19162",
    "name": "Harewood Rd near Farrington Ave",
    "lat": -43.48934,
    "lon": 172.59095
  },
  {
    "id": "33471",
    "name": "Penruddock Rse near Highcrest Hts",
    "lat": -43.58077,
    "lon": 172.60056
  },
  {
    "id": "22333",
    "name": "Patterson Tce near Ridder Pl",
    "lat": -43.57752,
    "lon": 172.55667
  },
  {
    "id": "24996",
    "name": "Yaldhurst Rd near Racecourse Rd",
    "lat": -43.52631,
    "lon": 172.55403
  },
  {
    "id": "25845",
    "name": "James St near Boundary Rd",
    "lat": -43.6368,
    "lon": 172.48851
  },
  {
    "id": "54772",
    "name": "Smith Street near Raven St N",
    "lat": -43.37647,
    "lon": 172.65178
  },
  {
    "id": "53440",
    "name": "Corsair Dr - The Landing",
    "lat": -43.55341,
    "lon": 172.55635
  },
  {
    "id": "11206",
    "name": "Aldwins Rd near Harrow St",
    "lat": -43.53719,
    "lon": 172.66934
  },
  {
    "id": "14715",
    "name": "Riccarton Ave",
    "lat": -43.53146,
    "lon": 172.61625
  },
  {
    "id": "32146",
    "name": "St Martins Shops",
    "lat": -43.55743,
    "lon": 172.65359
  },
  {
    "id": "13869",
    "name": "Kotare St near Roa Rd",
    "lat": -43.52289,
    "lon": 172.59478
  },
  {
    "id": "10354",
    "name": "Merrin St near Hawthornden Rd",
    "lat": -43.50883,
    "lon": 172.55153
  },
  {
    "id": "11688",
    "name": "Centaurus Rd near Major Aitken Dr",
    "lat": -43.57003,
    "lon": 172.6444
  },
  {
    "id": "24528",
    "name": "Springs Rd near Sioux Ave",
    "lat": -43.54864,
    "lon": 172.54044
  },
  {
    "id": "26705",
    "name": "Oram Ave near Hood St",
    "lat": -43.5105,
    "lon": 172.73053
  },
  {
    "id": "41087",
    "name": "Ti Rakau Dr near Shearwater Dr",
    "lat": -43.54903,
    "lon": 172.69481
  },
  {
    "id": "11690",
    "name": "Centaurus Rd near Austin Kirk Ln",
    "lat": -43.56523,
    "lon": 172.64805
  },
  {
    "id": "44597",
    "name": "High St near Weston Pl",
    "lat": -43.30514,
    "lon": 172.5823
  },
  {
    "id": "45449",
    "name": "Linwood Ave near Kidbrooke St",
    "lat": -43.54474,
    "lon": 172.69253
  },
  {
    "id": "22346",
    "name": "Patterson Tce near Rempstone Dr",
    "lat": -43.57515,
    "lon": 172.55269
  },
  {
    "id": "19170",
    "name": "Bishopdale Mall (Harewood Rd)",
    "lat": -43.48793,
    "lon": 172.58753
  },
  {
    "id": "14727",
    "name": "Oakridge St near Nicholls Rd",
    "lat": -43.57975,
    "lon": 172.56326
  },
  {
    "id": "32133",
    "name": "Fendalton Rd near Stratford St",
    "lat": -43.52005,
    "lon": 172.60444
  },
  {
    "id": "53455",
    "name": "The Runway near Deal St",
    "lat": -43.55331,
    "lon": 172.55533
  },
  {
    "id": "54786",
    "name": "Smith Street near Raven St N",
    "lat": -43.37645,
    "lon": 172.65139
  },
  {
    "id": "51277",
    "name": "Sir William Pickering near Sir Gil Simpson",
    "lat": -43.49192,
    "lon": 172.56105
  },
  {
    "id": "36972",
    "name": "St Martins Rd near Wilding St",
    "lat": -43.55498,
    "lon": 172.65313
  },
  {
    "id": "10365",
    "name": "Kedleston Dr near Audley Gate",
    "lat": -43.51088,
    "lon": 172.5485
  },
  {
    "id": "54304",
    "name": "Darfield",
    "lat": -43.4906,
    "lon": 172.10665
  },
  {
    "id": "12546",
    "name": "Bealey Ave",
    "lat": -43.52025,
    "lon": 172.62751
  },
  {
    "id": "13876",
    "name": "Williams St near Davie St",
    "lat": -43.37934,
    "lon": 172.66204
  },
  {
    "id": "23647",
    "name": "Hay St near Mcgregors Rd",
    "lat": -43.53274,
    "lon": 172.68533
  },
  {
    "id": "20134",
    "name": "Hills Rd near Warden St",
    "lat": -43.50988,
    "lon": 172.65156
  },
  {
    "id": "44584",
    "name": "Ashley St near Duke St",
    "lat": -43.29777,
    "lon": 172.59492
  },
  {
    "id": "19143",
    "name": "Harewood Rd near Marble Wood Dr",
    "lat": -43.49428,
    "lon": 172.60249
  },
  {
    "id": "44108",
    "name": "Addington Village",
    "lat": -43.54387,
    "lon": 172.61117
  },
  {
    "id": "24977",
    "name": "Yaldhurst Rd near Withells Rd",
    "lat": -43.52446,
    "lon": 172.54793
  },
  {
    "id": "22314",
    "name": "Barrington St near Strauss Pl",
    "lat": -43.55921,
    "lon": 172.62118
  },
  {
    "id": "51283",
    "name": "Sir William Pickering Dr",
    "lat": -43.49635,
    "lon": 172.55886
  },
  {
    "id": "54793",
    "name": "Kingsbury Ave near Melford Cl",
    "lat": -43.2965,
    "lon": 172.58633
  },
  {
    "id": "32122",
    "name": "University - Creyke Rd",
    "lat": -43.52109,
    "lon": 172.58473
  },
  {
    "id": "53464",
    "name": "The Runway near Deal St",
    "lat": -43.55306,
    "lon": 172.55533
  },
  {
    "id": "12994",
    "name": "Halswell Rd near Coppell Pl",
    "lat": -43.5545,
    "lon": 172.59356
  },
  {
    "id": "10331",
    "name": "Avonhead Mall",
    "lat": -43.511,
    "lon": 172.55621
  },
  {
    "id": "54315",
    "name": "Darfield Town Centre",
    "lat": -43.48989,
    "lon": 172.11395
  },
  {
    "id": "36964",
    "name": "St Martins Rd near Ensors Rd",
    "lat": -43.55319,
    "lon": 172.65721
  },
  {
    "id": "41073",
    "name": "Opawa Rd near Grange St",
    "lat": -43.55854,
    "lon": 172.67298
  },
  {
    "id": "12514",
    "name": "Papanui Rd near Webb St",
    "lat": -43.51536,
    "lon": 172.62397
  },
  {
    "id": "28093",
    "name": "Blenheim Rd near Watts Rd",
    "lat": -43.53903,
    "lon": 172.55882
  },
  {
    "id": "33459",
    "name": "Penruddock Rse near Pembridge Ln",
    "lat": -43.57919,
    "lon": 172.60267
  },
  {
    "id": "19158",
    "name": "Harewood Rd near St James Ave",
    "lat": -43.49561,
    "lon": 172.60507
  },
  {
    "id": "44578",
    "name": "Kaiapoi High School",
    "lat": -43.38666,
    "lon": 172.64564
  },
  {
    "id": "45420",
    "name": "Bluestone Dr near Alpine View",
    "lat": -43.47318,
    "lon": 172.67327
  },
  {
    "id": "24500",
    "name": "Yaldhurst Rd near Ludecke Pl",
    "lat": -43.53008,
    "lon": 172.56633
  },
  {
    "id": "25832",
    "name": "Springs Rd near Birchs Rd",
    "lat": -43.58377,
    "lon": 172.50942
  },
  {
    "id": "10349",
    "name": "Avonhead Mall",
    "lat": -43.50953,
    "lon": 172.55381
  },
  {
    "id": "32599",
    "name": "Greers Rd near Ardmore Pl",
    "lat": -43.49132,
    "lon": 172.59274
  },
  {
    "id": "14704",
    "name": "Christchurch Hospital Main Stop WB",
    "lat": -43.5352,
    "lon": 172.62671
  },
  {
    "id": "51296",
    "name": "Bush St near Coates Pl",
    "lat": -43.31215,
    "lon": 172.5896
  },
  {
    "id": "33444",
    "name": "Penruddock Rse near Croftfield Pl",
    "lat": -43.57718,
    "lon": 172.60377
  },
  {
    "id": "32114",
    "name": "University - Creyke Rd",
    "lat": -43.52103,
    "lon": 172.5849
  },
  {
    "id": "53472",
    "name": "Hawke St near Keppel St",
    "lat": -43.50605,
    "lon": 172.72955
  },
  {
    "id": "42391",
    "name": "Heathcote",
    "lat": -43.57721,
    "lon": 172.71088
  },
  {
    "id": "11674",
    "name": "Gamblins Rd near Ngaio St",
    "lat": -43.55868,
    "lon": 172.65182
  },
  {
    "id": "36955",
    "name": "Ensors Rd",
    "lat": -43.55101,
    "lon": 172.65878
  },
  {
    "id": "13853",
    "name": "Williams St near Dale St",
    "lat": -43.37365,
    "lon": 172.66285
  },
  {
    "id": "44566",
    "name": "Ashley St near Duke St",
    "lat": -43.29797,
    "lon": 172.5948
  },
  {
    "id": "42389",
    "name": "Bridle Path Rd near Hammerton Ln",
    "lat": -43.5715,
    "lon": 172.71077
  },
  {
    "id": "19127",
    "name": "Harewood Rd near Wooldridge Rd",
    "lat": -43.48056,
    "lon": 172.56768
  },
  {
    "id": "18274",
    "name": "Burwood Rd near Stanford St",
    "lat": -43.48483,
    "lon": 172.68186
  },
  {
    "id": "20595",
    "name": "Whitmore St near Bealey Ave",
    "lat": -43.52029,
    "lon": 172.65042
  },
  {
    "id": "45892",
    "name": "Halswell Junction Rd near Foremans Rd",
    "lat": -43.54349,
    "lon": 172.50657
  },
  {
    "id": "25809",
    "name": "Springs Rd near Boston Ave",
    "lat": -43.55554,
    "lon": 172.53143
  },
  {
    "id": "41056",
    "name": "Bridle Path Rd near Rollin St",
    "lat": -43.57889,
    "lon": 172.71014
  },
  {
    "id": "32581",
    "name": "Hills Rd near Dudley St",
    "lat": -43.51392,
    "lon": 172.65156
  },
  {
    "id": "24954",
    "name": "Barbadoes St near Purchas St",
    "lat": -43.51839,
    "lon": 172.64587
  },
  {
    "id": "32105",
    "name": "Ferry Rd near Radley St",
    "lat": -43.54707,
    "lon": 172.67855
  },
  {
    "id": "10799",
    "name": "Guildford St near Wayside Ave",
    "lat": -43.50513,
    "lon": 172.58013
  },
  {
    "id": "53486",
    "name": "Hawke St near Keppel St",
    "lat": -43.50626,
    "lon": 172.72891
  },
  {
    "id": "36940",
    "name": "Ensors Rd and Sullivan Ave",
    "lat": -43.54718,
    "lon": 172.66169
  },
  {
    "id": "10312",
    "name": "Withells Rd near Gainford St",
    "lat": -43.51425,
    "lon": 172.55429
  },
  {
    "id": "11642",
    "name": "Centaurus Rd near Woodlau Rse",
    "lat": -43.56745,
    "lon": 172.64684
  },
  {
    "id": "12973",
    "name": "Main North Rd near Northcote Rd",
    "lat": -43.4856,
    "lon": 172.61605
  },
  {
    "id": "33437",
    "name": "Cashmere Rd near Mavin Rd",
    "lat": -43.57427,
    "lon": 172.61367
  },
  {
    "id": "28072",
    "name": "Blenheim Rd near Hansons Ln",
    "lat": -43.53936,
    "lon": 172.57345
  },
  {
    "id": "19136",
    "name": "Harewood Rd near Nunweek Blvd",
    "lat": -43.48206,
    "lon": 172.5738
  },
  {
    "id": "18288",
    "name": "The Palms (Marshland Rd mall side)",
    "lat": -43.50727,
    "lon": 172.66292
  },
  {
    "id": "46736",
    "name": "Brittan Tce near Seaview Tce",
    "lat": -43.60484,
    "lon": 172.70973
  },
  {
    "id": "54343",
    "name": "Pegasus Main St near Motu Qy",
    "lat": -43.3113,
    "lon": 172.6952
  },
  {
    "id": "11657",
    "name": "Howard St near Simeon St",
    "lat": -43.5496,
    "lon": 172.61602
  },
  {
    "id": "53493",
    "name": "Williams St (Mobil Kaiapoi)",
    "lat": -43.38929,
    "lon": 172.65391
  },
  {
    "id": "28086",
    "name": "Blenheim Rd near Watts Rd",
    "lat": -43.53916,
    "lon": 172.56529
  },
  {
    "id": "36938",
    "name": "Ensors Rd near Charles St",
    "lat": -43.54486,
    "lon": 172.66336
  },
  {
    "id": "12505",
    "name": "Papanui Rd near St Albans St",
    "lat": -43.51384,
    "lon": 172.62289
  },
  {
    "id": "13830",
    "name": "Williams St near Sims Rd",
    "lat": -43.37538,
    "lon": 172.66267
  },
  {
    "id": "42370",
    "name": "Bridle Path Rd",
    "lat": -43.58386,
    "lon": 172.70679
  },
  {
    "id": "10320",
    "name": "Withells Rd near Apsley Dr",
    "lat": -43.51267,
    "lon": 172.55522
  },
  {
    "id": "33428",
    "name": "Cashmere Rd - Francis Res",
    "lat": -43.57521,
    "lon": 172.60483
  },
  {
    "id": "12987",
    "name": "Papanui Rd near Heaton St",
    "lat": -43.50886,
    "lon": 172.61864
  },
  {
    "id": "40190",
    "name": "Bower Ave near Dick Taylor Dr",
    "lat": -43.49236,
    "lon": 172.71141
  },
  {
    "id": "36482",
    "name": "Soleares Ave near Mt Pleasant Rd",
    "lat": -43.56706,
    "lon": 172.72053
  },
  {
    "id": "47137",
    "name": "Lincoln Rd near Hazeldean Rd",
    "lat": -43.54156,
    "lon": 172.61535
  },
  {
    "id": "40980",
    "name": "Wairakei Rd near Kendal Ave",
    "lat": -43.49629,
    "lon": 172.57833
  },
  {
    "id": "11186",
    "name": "Kerrs Rd",
    "lat": -43.52558,
    "lon": 172.68127
  },
  {
    "id": "40502",
    "name": "Milton St near Strickland St",
    "lat": -43.55229,
    "lon": 172.63013
  },
  {
    "id": "24015",
    "name": "Barbadoes St near Bealey Ave",
    "lat": -43.52034,
    "lon": 172.64579
  },
  {
    "id": "41831",
    "name": "Brittan Tce near Voelas Rd",
    "lat": -43.60337,
    "lon": 172.71171
  },
  {
    "id": "26672",
    "name": "Gloucester St near Stanmore Rd",
    "lat": -43.52989,
    "lon": 172.65669
  },
  {
    "id": "36005",
    "name": "Major Hornbrook Rd near Billys Trk",
    "lat": -43.56328,
    "lon": 172.71616
  },
  {
    "id": "23165",
    "name": "Princess Margaret Hospital",
    "lat": -43.57,
    "lon": 172.62067
  },
  {
    "id": "12034",
    "name": "Main North Rd near Richill St",
    "lat": -43.44521,
    "lon": 172.63216
  },
  {
    "id": "39515",
    "name": "Shirley Rd near Quinns Rd",
    "lat": -43.50799,
    "lon": 172.65909
  },
  {
    "id": "51644",
    "name": "Inwoods Rd near Jade Pl",
    "lat": -43.48116,
    "lon": 172.69902
  },
  {
    "id": "38669",
    "name": "Idris Rd near Fendalton Rd",
    "lat": -43.51876,
    "lon": 172.60113
  },
  {
    "id": "15548",
    "name": "Ferry Rd near Oak St",
    "lat": -43.54922,
    "lon": 172.68264
  },
  {
    "id": "14216",
    "name": "Bealey Ave",
    "lat": -43.5227,
    "lon": 172.63669
  },
  {
    "id": "11193",
    "name": "Lyttelton St near Rose St",
    "lat": -43.56812,
    "lon": 172.61548
  },
  {
    "id": "15553",
    "name": "Ferry Rd near Charlesworth St",
    "lat": -43.55573,
    "lon": 172.69484
  },
  {
    "id": "13375",
    "name": "Clyde Rd near Fendalton Rd",
    "lat": -43.51614,
    "lon": 172.59083
  },
  {
    "id": "38653",
    "name": "Straven Rd near Rochdale St",
    "lat": -43.52268,
    "lon": 172.60137
  },
  {
    "id": "23177",
    "name": "Hackthorne Rd near Stambridge Pl",
    "lat": -43.57753,
    "lon": 172.62619
  },
  {
    "id": "26686",
    "name": "Estuary Rd near Halsey St",
    "lat": -43.53619,
    "lon": 172.73823
  },
  {
    "id": "24027",
    "name": "Middlepark Rd near Epsom Rd",
    "lat": -43.53641,
    "lon": 172.55179
  },
  {
    "id": "40979",
    "name": "Highsted Rd near Glenmore Ave",
    "lat": -43.47717,
    "lon": 172.59675
  },
  {
    "id": "26209",
    "name": "Rocking Horse Rd",
    "lat": -43.55585,
    "lon": 172.74998
  },
  {
    "id": "28869",
    "name": "Main Rd near Te Awakura Tce",
    "lat": -43.55736,
    "lon": 172.71122
  },
  {
    "id": "50322",
    "name": "Ellesmere Junction Rd near Leeston Rd",
    "lat": -43.64313,
    "lon": 172.42571
  },
  {
    "id": "39504",
    "name": "Shirley Rd near Quinns Rd",
    "lat": -43.50814,
    "lon": 172.65754
  },
  {
    "id": "12047",
    "name": "Main North Rd near Donegal St",
    "lat": -43.44697,
    "lon": 172.63099
  },
  {
    "id": "19910",
    "name": "Veitches Rd near Cavendish Rd",
    "lat": -43.48138,
    "lon": 172.60582
  },
  {
    "id": "51659",
    "name": "Inwoods Rd near Jade Pl",
    "lat": -43.48078,
    "lon": 172.69945
  },
  {
    "id": "11164",
    "name": "Eastgate Mall (Buckleys Rd)",
    "lat": -43.53243,
    "lon": 172.67437
  },
  {
    "id": "12010",
    "name": "N Avon Rd near Petrie St",
    "lat": -43.51751,
    "lon": 172.65701
  },
  {
    "id": "23149",
    "name": "Hackthorne Rd near Gwynfa Ave",
    "lat": -43.57426,
    "lon": 172.62481
  },
  {
    "id": "40967",
    "name": "Ferry Rd near Settlers Cres",
    "lat": -43.55794,
    "lon": 172.70462
  },
  {
    "id": "41812",
    "name": "Norwich Quay near Canterbury St",
    "lat": -43.60374,
    "lon": 172.72096
  },
  {
    "id": "28830",
    "name": "Bealey Ave",
    "lat": -43.52072,
    "lon": 172.64019
  },
  {
    "id": "51663",
    "name": "Bower Ave near Crofts Ln",
    "lat": -43.47797,
    "lon": 172.71082
  },
  {
    "id": "22295",
    "name": "Lyttelton St near Hennessy Pl",
    "lat": -43.56,
    "lon": 172.61212
  },
  {
    "id": "24473",
    "name": "Racecourse Rd near O'briens Rd",
    "lat": -43.5331,
    "lon": 172.54703
  },
  {
    "id": "15524",
    "name": "Ferry Rd near Tilford St",
    "lat": -43.54608,
    "lon": 172.67492
  },
  {
    "id": "14677",
    "name": "St Asaph St near Fitzgerald Ave",
    "lat": -43.53644,
    "lon": 172.64973
  },
  {
    "id": "50333",
    "name": "Lowes Rd near Rembrandt Dr",
    "lat": -43.60353,
    "lon": 172.37972
  },
  {
    "id": "44080",
    "name": "Rowley Ave near Salmond St",
    "lat": -43.56505,
    "lon": 172.58724
  },
  {
    "id": "38648",
    "name": "Idris Rd near Wroxton Tce",
    "lat": -43.51658,
    "lon": 172.60235
  },
  {
    "id": "13347",
    "name": "Main North Rd near Manse Pl",
    "lat": -43.47723,
    "lon": 172.61674
  },
  {
    "id": "14683",
    "name": "Moorhouse Ave near Selwyn St",
    "lat": -43.53982,
    "lon": 172.6224
  },
  {
    "id": "13352",
    "name": "Williams St near the lakes",
    "lat": -43.35645,
    "lon": 172.66456
  },
  {
    "id": "11172",
    "name": "Buckleys Rd near Butterfield Ave",
    "lat": -43.5284,
    "lon": 172.67945
  },
  {
    "id": "14200",
    "name": "Buchanans Rd near Racecourse Rd",
    "lat": -43.5354,
    "lon": 172.54467
  },
  {
    "id": "38630",
    "name": "Idris Rd near Wroxton Tce",
    "lat": -43.51656,
    "lon": 172.60213
  },
  {
    "id": "28848",
    "name": "Main Rd near Wakatu Ave",
    "lat": -43.56501,
    "lon": 172.7418
  },
  {
    "id": "51671",
    "name": "Bower Ave near Crofts Ln",
    "lat": -43.47762,
    "lon": 172.71081
  },
  {
    "id": "23154",
    "name": "Hackthorne Rd near Cashmere Rd",
    "lat": -43.57185,
    "lon": 172.62437
  },
  {
    "id": "12023",
    "name": "Burwood Rd near Clarevale St",
    "lat": -43.49064,
    "lon": 172.68391
  },
  {
    "id": "54701",
    "name": "Oxford Road near Charles Upham Dr",
    "lat": -43.30622,
    "lon": 172.57313
  },
  {
    "id": "50346",
    "name": "Lowes Rd near Tennyson St",
    "lat": -43.60143,
    "lon": 172.38455
  },
  {
    "id": "28811",
    "name": "Bealey Ave near Madras St",
    "lat": -43.52072,
    "lon": 172.643
  },
  {
    "id": "22276",
    "name": "Halswell Rd near Village Lane",
    "lat": -43.58411,
    "lon": 172.56994
  },
  {
    "id": "24456",
    "name": "Emmett St near Riselaw St",
    "lat": -43.5057,
    "lon": 172.65504
  },
  {
    "id": "40946",
    "name": "Tuam St near Nursery Rd",
    "lat": -43.53539,
    "lon": 172.65884
  },
  {
    "id": "26638",
    "name": "Pages Rd near Farnborough St",
    "lat": -43.51216,
    "lon": 172.71391
  },
  {
    "id": "50351",
    "name": "Jones Rd near Weedons Ross Rd",
    "lat": -43.5785,
    "lon": 172.40897
  },
  {
    "id": "51685",
    "name": "Aston Dr near Torres Pines",
    "lat": -43.47529,
    "lon": 172.71499
  },
  {
    "id": "23120",
    "name": "Hackthorne Rd near Lowick Ave",
    "lat": -43.57689,
    "lon": 172.62451
  },
  {
    "id": "13323",
    "name": "N Avon Rd near Chrystal St",
    "lat": -43.51752,
    "lon": 172.65842
  },
  {
    "id": "12477",
    "name": "Marshland Rd near Pagoda St",
    "lat": -43.49866,
    "lon": 172.66183
  },
  {
    "id": "10298",
    "name": "Maidstone Rd near Highfield Pl",
    "lat": -43.51696,
    "lon": 172.56073
  },
  {
    "id": "38624",
    "name": "Glandovey Rd",
    "lat": -43.51417,
    "lon": 172.60512
  },
  {
    "id": "37778",
    "name": "Gayhurst Rd near Coopers Rd",
    "lat": -43.51036,
    "lon": 172.67357
  },
  {
    "id": "54717",
    "name": "Oxford Road near Oakwood Dr",
    "lat": -43.30621,
    "lon": 172.5741
  },
  {
    "id": "12483",
    "name": "Papanui Rd near Murray Pl",
    "lat": -43.51023,
    "lon": 172.6199
  },
  {
    "id": "15991",
    "name": "Northwood Blvd near Main North Rd",
    "lat": -43.46042,
    "lon": 172.62166
  },
  {
    "id": "25312",
    "name": "Middlepark Rd near Takaro Ave",
    "lat": -43.53423,
    "lon": 172.55496
  },
  {
    "id": "28824",
    "name": "Main Rd near Celia St",
    "lat": -43.55995,
    "lon": 172.73648
  },
  {
    "id": "51692",
    "name": "Aston Dr near Torres Pines",
    "lat": -43.47545,
    "lon": 172.7152
  },
  {
    "id": "24460",
    "name": "Buchanans Rd near Racecourse Rd",
    "lat": -43.53549,
    "lon": 172.54542
  },
  {
    "id": "23131",
    "name": "Hackthorne Rd near Lady Polson Ln",
    "lat": -43.57596,
    "lon": 172.6244
  },
  {
    "id": "32076",
    "name": "Innes Rd near Hills Rd",
    "lat": -43.49537,
    "lon": 172.6477
  },
  {
    "id": "51212",
    "name": "Roydvale Ave near Highwood Ln",
    "lat": -43.49263,
    "lon": 172.56487
  },
  {
    "id": "26640",
    "name": "Bush St near South Blt",
    "lat": -43.31849,
    "lon": 172.59117
  },
  {
    "id": "14665",
    "name": "St Asaph St near Barbadoes St",
    "lat": -43.53645,
    "lon": 172.64519
  },
  {
    "id": "50367",
    "name": "Jones Rd near Hoskyns Rd",
    "lat": -43.58714,
    "lon": 172.38587
  },
  {
    "id": "47562",
    "name": "Hussey Rd near Millpark Tce",
    "lat": -43.45894,
    "lon": 172.60952
  },
  {
    "id": "15511",
    "name": "Ferrymead Shops",
    "lat": -43.55735,
    "lon": 172.70234
  },
  {
    "id": "54729",
    "name": "Rangiora (Ashley Street)",
    "lat": -43.30274,
    "lon": 172.59599
  },
  {
    "id": "24439",
    "name": "Quinns Rd near Hercules St",
    "lat": -43.50559,
    "lon": 172.658
  },
  {
    "id": "37750",
    "name": "Aldwins Rd near Edmond St",
    "lat": -43.54089,
    "lon": 172.66674
  },
  {
    "id": "23584",
    "name": "Colombo St near Nutfield Ln",
    "lat": -43.56188,
    "lon": 172.63687
  },
  {
    "id": "33395",
    "name": "Milton St near Drummond St",
    "lat": -43.5507,
    "lon": 172.63548
  },
  {
    "id": "19087",
    "name": "Highsted Rd",
    "lat": -43.48118,
    "lon": 172.59344
  },
  {
    "id": "40922",
    "name": "Hussey Rd near Springvale Gdns",
    "lat": -43.46255,
    "lon": 172.59296
  },
  {
    "id": "25768",
    "name": "Springs Rd near Henry Wigram Dr",
    "lat": -43.54473,
    "lon": 172.54416
  },
  {
    "id": "38607",
    "name": "Heaton St near Glandovey Rd",
    "lat": -43.51298,
    "lon": 172.61098
  },
  {
    "id": "11129",
    "name": "Rose St near Hoon Hay Rd",
    "lat": -43.56933,
    "lon": 172.61165
  },
  {
    "id": "32069",
    "name": "Lake Terrace Rd near Lakewood Dr",
    "lat": -43.49471,
    "lon": 172.67651
  },
  {
    "id": "40914",
    "name": "Main North Rd near Sturrocks Rd",
    "lat": -43.47467,
    "lon": 172.61724
  },
  {
    "id": "53401",
    "name": "Island Rd near Barnard St",
    "lat": -43.38426,
    "lon": 172.63929
  },
  {
    "id": "13784",
    "name": "Hawthornden Rd near Bellingham Pl",
    "lat": -43.51012,
    "lon": 172.55017
  },
  {
    "id": "50379",
    "name": "Jones Rd near Hoskyns Rd",
    "lat": -43.58698,
    "lon": 172.38597
  },
  {
    "id": "10279",
    "name": "Maidstone Rd",
    "lat": -43.51686,
    "lon": 172.56448
  },
  {
    "id": "13306",
    "name": "Marshland Rd near Alma Pl",
    "lat": -43.50502,
    "lon": 172.66247
  },
  {
    "id": "54738",
    "name": "West Belt near Arlington Boulevard",
    "lat": -43.29417,
    "lon": 172.57688
  },
  {
    "id": "26629",
    "name": "Pages Rd",
    "lat": -43.51096,
    "lon": 172.7168
  },
  {
    "id": "10280",
    "name": "Maidstone Rd near Westmont St",
    "lat": -43.51671,
    "lon": 172.56528
  },
  {
    "id": "28807",
    "name": "Main Rd near Raekura Pl",
    "lat": -43.55896,
    "lon": 172.73519
  },
  {
    "id": "36891",
    "name": "Aldwins Rd near Marlborough St",
    "lat": -43.53442,
    "lon": 172.67232
  },
  {
    "id": "15970",
    "name": "Northwood",
    "lat": -43.4584,
    "lon": 172.61527
  },
  {
    "id": "25775",
    "name": "Springs Rd near Boston Ave",
    "lat": -43.55532,
    "lon": 172.53141
  },